{"data":[{"val":107.0,"level_index":5,"id":"90430400","name":"哄哈","lng":104.73983,"lat":23.283531,"type":"PP","type_name":"雨量站","subjection":"文山分局","address":"文山州西畴县法斗乡哄哈村","area_id":"532623","basin_name":"红河","is_over":true,"river_name":"八布河","water_system":"泸江","lybm":"9","sxbm":"04","adag":"文山分局            "},{"val":106.0,"level_index":5,"id":"90246700","name":"景洪勐宋","lng":100.495,"lat":21.5,"type":"PP","type_name":"雨量站","subjection":"版纳分局","address":"版纳州景洪市勐龙镇勐宋村委会勐宋水库","area_id":"532801","basin_name":"澜沧江","is_over":true,"river_name":"南骑乐各河","water_system":"澜沧江","lybm":"9","sxbm":"02","adag":"版纳分局            "},{"val":96.0,"level_index":4,"id":"90523925","name":"象滚塘","lng":98.585555,"lat":24.531666,"type":"PP","type_name":"雨量站","subjection":"德宏分局","address":"德宏州芒市芒市镇象滚塘村委会","area_id":"533103","basin_name":"伊洛瓦底江","is_over":true,"river_name":"河坝田河","water_system":"芒市大河","lybm":"9","sxbm":"05","adag":"德宏分局            "},{"val":92.5,"level_index":4,"id":"90247080","name":"勐润","lng":101.2303,"lat":21.4122,"type":"PP","type_name":"雨量站","subjection":"版纳分局","address":"版纳州勐腊县勐捧镇勐满农场三分场场部","area_id":"532823","basin_name":"澜沧江","is_over":true,"river_name":"南润河","water_system":"澜沧江","lybm":"9","sxbm":"02","adag":"版纳分局            "},{"val":92.0,"level_index":4,"id":"90523600","name":"桦桃岭","lng":98.666667,"lat":24.533333,"type":"PP","type_name":"雨量站","subjection":"德宏分局","address":"德宏州芒市芒市镇桦桃岭村","area_id":"533103","basin_name":"伊洛瓦底江","is_over":true,"river_name":"芒市大河","water_system":"瑞丽江","lybm":"9","sxbm":"05","adag":"德宏分局            "},{"val":91.5,"level_index":4,"id":"90247090","name":"勐满","lng":101.3,"lat":21.3,"type":"PP","type_name":"雨量站","subjection":"版纳分局","address":"版纳州勐腊县勐满镇水土保持管理站","area_id":"532823","basin_name":"澜沧江","is_over":true,"river_name":"南满河","water_system":"澜沧江","lybm":"9","sxbm":"02","adag":"版纳分局            "},{"val":89.5,"level_index":4,"id":"90226600","name":"脉地","lng":99.922472,"lat":25.789917,"type":"PP","type_name":"雨量站","subjection":"大理分局","address":"大理州漾濞县漾江镇江桥村","area_id":"532922","basin_name":"澜沧江","is_over":true,"river_name":"黑惠江","water_system":"澜沧江","lybm":"9","sxbm":"02","adag":"大理分局            "},{"val":88.5,"level_index":4,"id":"90521900","name":"地盘关","lng":98.5333,"lat":25.7,"type":"PP","type_name":"雨量站","subjection":"保山分局","address":"保山市腾冲市明光乡美靠河村","area_id":"530581","basin_name":"伊洛瓦底江","is_over":true,"river_name":"明光河","water_system":"瑞丽江","lybm":"9","sxbm":"05","adag":"保山分局            "},{"val":86.5,"level_index":4,"id":"90248420","name":"南列","lng":99.5442,"lat":22.4433,"type":"PP","type_name":"雨量站","subjection":"普洱分局","address":"普洱市澜沧县拉巴乡那卡一组","area_id":"530828","basin_name":"澜沧江","is_over":true,"river_name":"南垒河","water_system":"澜沧江","lybm":"9","sxbm":"02","adag":"普洱分局            "},{"val":85.0,"level_index":4,"id":"90247010","name":"磨歇","lng":101.6847,"lat":21.3367,"type":"PP","type_name":"雨量站","subjection":"版纳分局","address":"版纳州勐腊县尚勇镇磨歇村","area_id":"532823","basin_name":"澜沧江","is_over":true,"river_name":"南木窝河","water_system":"澜沧江","lybm":"9","sxbm":"02","adag":"版纳分局            "},{"val":82.5,"level_index":4,"id":"90327860","name":"南腊","lng":98.989028,"lat":23.368436,"type":"PP","type_name":"雨量站","subjection":"临沧分局","address":"临沧市沧源县南腊乡南腊村","area_id":"530927","basin_name":"怒江","is_over":true,"river_name":"南令河","water_system":"南汀河","lybm":"9","sxbm":"03","adag":"临沧分局            "},{"val":82.0,"level_index":4,"id":"90523220","name":"陈家寨","lng":98.7192,"lat":24.6031,"type":"PP","type_name":"雨量站","subjection":"保山分局","address":"保山市龙陵县龙山镇大坪子村委会","area_id":"530523","basin_name":"伊洛瓦底江","is_over":true,"river_name":"龙山东河","water_system":"伊洛瓦底江","lybm":"9","sxbm":"05","adag":"保山分局            "},{"val":81.0,"level_index":4,"id":"90520310","name":"普关","lng":98.1272,"lat":25.0781,"type":"PP","type_name":"雨量站","subjection":"德宏分局","address":"德宏州盈江县盏西镇普关村","area_id":"533123","basin_name":"伊洛瓦底江","is_over":true,"river_name":"平场河","water_system":"槟榔江","lybm":"9","sxbm":"05","adag":"德宏分局            "},{"val":80.0,"level_index":4,"id":"90247050","name":"团结寨","lng":101.7,"lat":21.25,"type":"PP","type_name":"雨量站","subjection":"版纳分局","address":"版纳州勐腊县尚勇镇尚勇村委会纳勇村","area_id":"532823","basin_name":"澜沧江","is_over":true,"river_name":"尚勇河","water_system":"澜沧江","lybm":"9","sxbm":"02","adag":"版纳分局            "},{"val":77.0,"level_index":4,"id":"90523170","name":"蒲川","lng":98.5667,"lat":24.7,"type":"PP","type_name":"雨量站","subjection":"保山分局","address":"保山市腾冲市蒲川乡蒲川村","area_id":"530581","basin_name":"伊洛瓦底江","is_over":true,"river_name":"大蒲窝河","water_system":"瑞丽江","lybm":"9","sxbm":"05","adag":"保山分局            "},{"val":76.0,"level_index":4,"id":"90328950","name":"南天门","lng":99.396472,"lat":23.648639,"type":"PP","type_name":"雨量站","subjection":"临沧分局","address":"临沧市耿马县勐简乡南天门森林瞭望塔","area_id":"530926","basin_name":"怒江","is_over":true,"river_name":"南木老河","water_system":"南汀河","lybm":"9","sxbm":"03","adag":"临沧分局            "},{"val":73.5,"level_index":4,"id":"90244500","name":"曼兴良","lng":100.625,"lat":22.0742,"type":"PP","type_name":"雨量站","subjection":"版纳分局","address":"版纳州勐海县勐宋乡曼西良电视台","area_id":"532822","basin_name":"澜沧江","is_over":true,"river_name":"南奔河","water_system":"澜沧江","lybm":"9","sxbm":"02","adag":"版纳分局            "},{"val":72.5,"level_index":4,"id":"90332360","name":"富岩","lng":99.4189,"lat":22.3961,"type":"PP","type_name":"雨量站","subjection":"普洱分局","address":"普洱市孟连县富岩乡水库管理所","area_id":"530827","basin_name":"怒江","is_over":true,"river_name":"坑拉岩","water_system":"南卡江","lybm":"9","sxbm":"03","adag":"普洱分局            "},{"val":71.5,"level_index":4,"id":"90247175","name":"邦善","lng":101.4347,"lat":21.4097,"type":"PP","type_name":"雨量站","subjection":"版纳分局","address":"版纳州勐腊县勐满镇邦善村","area_id":"532823","basin_name":"澜沧江","is_over":true,"river_name":"南满河","water_system":"澜沧江","lybm":"9","sxbm":"02","adag":"版纳分局            "},{"val":71.5,"level_index":4,"id":"90433700","name":"马关坡脚","lng":104.311342,"lat":23.107803,"type":"PP","type_name":"雨量站","subjection":"文山分局","address":"文山州马关县坡脚乡坡脚村","area_id":"532625","basin_name":"红河","is_over":true,"river_name":"南山河","water_system":"泸江","lybm":"9","sxbm":"04","adag":"文山分局            "},{"val":71.0,"level_index":4,"id":"90329070","name":"尖山","lng":98.911389,"lat":23.647667,"type":"PP","type_name":"雨量站","subjection":"临沧分局","address":"临沧市耿马县孟定镇尖山村完小","area_id":"530926","basin_name":"怒江","is_over":true,"river_name":"南捧河","water_system":"南汀河","lybm":"9","sxbm":"03","adag":"临沧分局            "},{"val":71.0,"level_index":4,"id":"90521740","name":"洒水河电站","lng":97.9113,"lat":24.8354,"type":"PP","type_name":"雨量站","subjection":"德宏分局","address":"德宏州盈江县平原镇洒水河电站","area_id":"533123","basin_name":"伊洛瓦底江","is_over":true,"river_name":"洒水河","water_system":"盏达河","lybm":"9","sxbm":"05","adag":"德宏分局            "},{"val":70.0,"level_index":4,"id":"90306450","name":"忙撒","lng":99.043444,"lat":23.488861,"type":"ZZ","type_name":"河道水位站","subjection":"临沧分局","address":"临沧市耿马县孟定镇下坝社区","area_id":"530926","basin_name":"怒江","flood_val":503.900,"ensure_val":504.200,"is_over":true,"river_name":"小黑河","water_system":"南汀河","lybm":"9","sxbm":"03","adag":"临沧分局            "},{"val":69.0,"level_index":4,"id":"90247300","name":"勐腊新寨","lng":101.3667,"lat":21.5333,"type":"PP","type_name":"雨量站","subjection":"版纳分局","address":"版纳州勐腊县勐捧镇温泉新寨村","area_id":"532823","basin_name":"澜沧江","is_over":true,"river_name":"南泥河","water_system":"澜沧江","lybm":"9","sxbm":"02","adag":"版纳分局            "},{"val":68.5,"level_index":4,"id":"90226200","name":"下登","lng":99.553889,"lat":26.27,"type":"PP","type_name":"雨量站","subjection":"大理分局","address":"大理州剑川县象图乡下登","area_id":"532931","basin_name":"澜沧江","is_over":true,"river_name":"弥沙河","water_system":"澜沧江","lybm":"9","sxbm":"02","adag":"大理分局            "},{"val":68.0,"level_index":4,"id":"90201600","name":"允景洪","lng":100.7886,"lat":22.03269,"type":"ZQ","type_name":"河道水文站","subjection":"版纳分局","address":"版纳州景洪市景洪大桥上游320米","area_id":"532801","basin_name":"澜沧江","flood_val":543.460,"ensure_val":544.770,"is_over":true,"river_name":"澜沧江","water_system":"澜沧江","lybm":"9","sxbm":"02","adag":"版纳分局            "},{"val":68.0,"level_index":4,"id":"90246740","name":"龙秋大寨","lng":100.68,"lat":21.78,"type":"PP","type_name":"雨量站","subjection":"版纳分局","address":"版纳州景洪市勐龙镇龙秋大寨村","area_id":"532801","basin_name":"澜沧江","is_over":true,"river_name":"南背囡河","water_system":"澜沧江","lybm":"9","sxbm":"02","adag":"版纳分局            "},{"val":67.0,"level_index":4,"id":"90520020","name":"卡场","lng":97.7998,"lat":24.9835,"type":"PP","type_name":"雨量站","subjection":"德宏分局","address":"德宏州盈江县卡场乡卡场村","area_id":"533123","basin_name":"伊洛瓦底江","is_over":true,"river_name":"勐典河","water_system":"南太白江","lybm":"9","sxbm":"05","adag":"德宏分局            "},{"val":67.0,"level_index":4,"id":"90523700","name":"背阴山","lng":98.583333,"lat":24.566667,"type":"PP","type_name":"雨量站","subjection":"德宏分局","address":"德宏州芒市芒市镇背阴山村","area_id":"533103","basin_name":"伊洛瓦底江","is_over":true,"river_name":"芒市大河","water_system":"瑞丽江","lybm":"9","sxbm":"05","adag":"德宏分局            "},{"val":66.5,"level_index":4,"id":"90246960","name":"小龙哈","lng":101.6842,"lat":21.3614,"type":"PP","type_name":"雨量站","subjection":"版纳分局","address":"版纳州勐腊县磨憨镇小龙哈村","area_id":"532823","basin_name":"澜沧江","is_over":true,"river_name":"南木河","water_system":"澜沧江","lybm":"9","sxbm":"02","adag":"版纳分局            "},{"val":65.0,"level_index":4,"id":"90133000","name":"马鞍底","lng":103.5198,"lat":22.7677,"type":"PP","type_name":"雨量站","subjection":"红河分局","address":"红河州金平县勐桥乡马鞍底村","area_id":"532530","basin_name":"红河","is_over":true,"river_name":"水碾河","water_system":"元江","lybm":"9","sxbm":"01","adag":"红河分局            "},{"val":65.0,"level_index":4,"id":"90246760","name":"东风农中桥","lng":100.77,"lat":21.7697,"type":"PP","type_name":"雨量站","subjection":"版纳分局","address":"版纳州景洪市勐龙镇东风农场","area_id":"532801","basin_name":"澜沧江","is_over":true,"river_name":"南背囡河","water_system":"澜沧江","lybm":"9","sxbm":"02","adag":"版纳分局            "},{"val":64.5,"level_index":4,"id":"90305200","name":"姑老河","lng":99.237333,"lat":23.677222,"type":"ZQ","type_name":"河道水文站","subjection":"临沧分局","address":"临沧市耿马县孟定镇姑老河村","area_id":"530926","basin_name":"怒江","flood_val":516.000,"ensure_val":516.600,"is_over":true,"river_name":"南汀河","water_system":"南汀河","lybm":"9","sxbm":"03","station_position":45,"adag":"临沧分局            "},{"val":64.5,"level_index":4,"id":"90520700","name":"三家村","lng":98.5667,"lat":25.0833,"type":"PP","type_name":"雨量站","subjection":"保山分局","address":"保山市腾冲市打苴乡三家村","area_id":"530581","basin_name":"伊洛瓦底江","is_over":true,"river_name":"叠水河","water_system":"南底河","lybm":"9","sxbm":"05","adag":"保山分局            "},{"val":64.0,"level_index":4,"id":"90522140","name":"李家坡头","lng":98.6222,"lat":25.3611,"type":"PP","type_name":"雨量站","subjection":"保山分局","address":"保山市腾冲市界头乡石墙村委会","area_id":"530581","basin_name":"伊洛瓦底江","is_over":true,"river_name":"大塘河","water_system":"伊洛瓦底江","lybm":"9","sxbm":"05","adag":"保山分局            "},{"val":63.5,"level_index":4,"id":"90245110","name":"永庆","lng":101.1189,"lat":22.7906,"type":"PP","type_name":"雨量站","subjection":"普洱分局","address":"普洱市思茅区倚象镇永庆村","area_id":"530802","basin_name":"澜沧江","is_over":true,"river_name":"软桥河","water_system":"澜沧江","lybm":"9","sxbm":"02","adag":"普洱分局            "},{"val":63.5,"level_index":4,"id":"90500980","name":"北海","lng":98.557437,"lat":25.072673,"type":"ZQ","type_name":"河道水文站","subjection":"保山分局","address":"保山市腾冲市北海乡下村杜家大桥","area_id":"530581","basin_name":"伊洛瓦底江","is_over":true,"river_name":"南底河","water_system":"大盈江","lybm":"9","sxbm":"05","station_position":45,"adag":"保山分局            "},{"val":62.5,"level_index":4,"id":"90331600","name":"马散","lng":99.4294,"lat":22.7869,"type":"PP","type_name":"雨量站","subjection":"普洱分局","address":"普洱市西盟县勐卡镇马散水库","area_id":"530829","basin_name":"怒江","is_over":true,"river_name":"南锡河","water_system":"南卡江","lybm":"9","sxbm":"03","adag":"普洱分局            "},{"val":61.5,"level_index":4,"id":"80240610","name":"小坝心","lng":104.062231,"lat":23.971623,"type":"PP","type_name":"雨量站","subjection":"文山分局","address":"文山州丘北县树皮乡小坝心村","area_id":"532626","basin_name":"珠江","is_over":true,"river_name":"北门河","water_system":"西江","lybm":"8","sxbm":"02","adag":"文山分局            "},{"val":61.5,"level_index":4,"id":"90403800","name":"天保(二)","lng":104.845156,"lat":22.941999,"type":"ZQ","type_name":"河道水文站","subjection":"文山分局","address":"文山州麻栗坡县天保口岸","area_id":"532624","basin_name":"红河","flood_val":122.000,"ensure_val":123.000,"is_over":true,"river_name":"盘龙河","water_system":"泸江","lybm":"9","sxbm":"04","adag":"文山分局            "},{"val":61.0,"level_index":4,"id":"90235200","name":"青平","lng":99.949,"lat":23.382694,"type":"PP","type_name":"雨量站","subjection":"临沧分局","address":"临沧市双江县大文乡清平中日友好小学","area_id":"530925","basin_name":"澜沧江","is_over":true,"river_name":"骂料河","water_system":"澜沧江","lybm":"9","sxbm":"02","adag":"临沧分局            "},{"val":61.0,"level_index":4,"id":"90522125","name":"单龙河","lng":98.6814,"lat":25.6936,"type":"PP","type_name":"雨量站","subjection":"保山分局","address":"保山市腾冲市界头乡大河头村民小组","area_id":"530581","basin_name":"伊洛瓦底江","is_over":true,"river_name":"单龙河","water_system":"瑞丽江","lybm":"9","sxbm":"05","adag":"保山分局            "},{"val":60.0,"level_index":4,"id":"80723060","name":"木乍","lng":104.8575,"lat":24.172778,"type":"PP","type_name":"雨量站","subjection":"文山分局","address":"文山州广南县者兔乡木乍村","area_id":"532627","basin_name":"珠江","is_over":true,"river_name":"西洋江","water_system":"西江","lybm":"8","sxbm":"07","adag":"文山分局            "},{"val":60.0,"level_index":4,"id":"90246600","name":"布朗山","lng":100.4133,"lat":21.5842,"type":"PP","type_name":"雨量站","subjection":"版纳分局","address":"版纳州勐海县布朗山乡树清宾馆","area_id":"532822","basin_name":"澜沧江","is_over":true,"river_name":"南遮河","water_system":"澜沧江","lybm":"9","sxbm":"02","adag":"版纳分局            "},{"val":59.5,"level_index":4,"id":"90243110","name":"景洪水利局","lng":100.7989,"lat":22.0194,"type":"PP","type_name":"雨量站","subjection":"版纳分局","address":"版纳州景洪市允景洪街道办市水利局","area_id":"532801","basin_name":"澜沧江","is_over":true,"river_name":"澜沧江","water_system":"澜沧江","lybm":"9","sxbm":"02","adag":"版纳分局            "},{"val":58.5,"level_index":4,"id":"80722800","name":"马鞭稍","lng":104.661014,"lat":23.991461,"type":"PP","type_name":"雨量站","subjection":"文山分局","address":"文山州广南县珠琳镇珠琳街","area_id":"532627","basin_name":"珠江","is_over":true,"river_name":"西洋江","water_system":"西江","adag":"文山分局            "},{"val":58.0,"level_index":4,"id":"90238520","name":"澜沧大山","lng":100.1092,"lat":23.0086,"type":"PP","type_name":"雨量站","subjection":"普洱分局","address":"普洱市澜沧县大山乡乡政府","area_id":"530828","basin_name":"澜沧江","is_over":true,"river_name":"芒海河","water_system":"澜沧江","lybm":"9","sxbm":"02","adag":"普洱分局            "},{"val":57.5,"level_index":4,"id":"90216500","name":"勐捧","lng":101.310278,"lat":21.397778,"type":"ZQ","type_name":"河道水文站","subjection":"版纳分局","address":"版纳州勐腊县勐捧镇","area_id":"532823","basin_name":"澜沧江","flood_val":574.400,"ensure_val":575.700,"is_over":true,"river_name":"南满河","water_system":"澜沧江","lybm":"9","sxbm":"02","adag":"版纳分局            "},{"val":57.5,"level_index":4,"id":"90241670","name":"小坝子","lng":100.1272,"lat":22.7497,"type":"PP","type_name":"雨量站","subjection":"普洱分局","address":"普洱市澜沧县新城乡小坝子水库","area_id":"530828","basin_name":"澜沧江","is_over":true,"river_name":"勐撒河","water_system":"澜沧江","lybm":"9","sxbm":"02","adag":"普洱分局            "},{"val":57.5,"level_index":4,"id":"90523930","name":"河心厂小学","lng":98.5425,"lat":24.530833,"type":"PP","type_name":"雨量站","subjection":"德宏分局","address":"德宏州芒市芒市镇河心厂小学","area_id":"533103","basin_name":"伊洛瓦底江","is_over":true,"river_name":"富阳河","water_system":"芒市大河","lybm":"9","sxbm":"05","adag":"德宏分局            "},{"val":57.0,"level_index":4,"id":"90214450","name":"曼听","lng":100.8,"lat":21.986,"type":"ZZ","type_name":"河道水位站","subjection":"版纳分局","address":"版纳州景洪市山水云天小区","area_id":"532801","basin_name":"澜沧江","flood_val":538.900,"ensure_val":541.940,"is_over":true,"river_name":"流沙河","water_system":"澜沧江","lybm":"9","sxbm":"02","adag":"版纳分局            "},{"val":57.0,"level_index":4,"id":"90215960","name":"景冈","lng":101.676667,"lat":21.4275,"type":"ZQ","type_name":"河道水文站","subjection":"版纳分局","address":"版纳州勐腊县尚勇镇曼庄村委会景冈村民小组","area_id":"532823","basin_name":"澜沧江","flood_val":681.720,"ensure_val":682.670,"is_over":true,"river_name":"南木窝河","water_system":"澜沧江","lybm":"9","sxbm":"02","adag":"版纳分局            "},{"val":56.0,"level_index":4,"id":"90238320","name":"文东","lng":99.8964,"lat":23.1733,"type":"PP","type_name":"雨量站","subjection":"普洱分局","address":"普洱市澜沧县文东乡乡政府","area_id":"530828","basin_name":"澜沧江","is_over":true,"river_name":"小塞河","water_system":"澜沧江","lybm":"9","sxbm":"02","adag":"普洱分局            "},{"val":56.0,"level_index":4,"id":"90520530","name":"花园","lng":98.5911,"lat":25.1347,"type":"PP","type_name":"雨量站","subjection":"保山分局","address":"保山市腾冲市打苴乡花园村","area_id":"530581","basin_name":"伊洛瓦底江","is_over":true,"river_name":"打苴河","water_system":"南底河","lybm":"9","sxbm":"05","adag":"保山分局            "},{"val":55.5,"level_index":4,"id":"90215940","name":"纳板","lng":100.656667,"lat":22.18,"type":"ZQ","type_name":"河道水文站","subjection":"版纳分局","address":"版纳州景洪市嘎洒镇曼纳板村委会","area_id":"532801","basin_name":"澜沧江","flood_val":658.690,"ensure_val":661.560,"is_over":true,"river_name":"纳板河","water_system":"澜沧江","lybm":"9","sxbm":"02","adag":"版纳分局            "},{"val":55.0,"level_index":4,"id":"90216200","name":"曼拉撒","lng":101.5514,"lat":21.4308,"type":"ZQ","type_name":"河道水文站","subjection":"版纳分局","address":"版纳州勐腊县勐腊镇曼拉撒大桥下游2.5公里","area_id":"532823","basin_name":"澜沧江","flood_val":625.300,"ensure_val":626.400,"is_over":true,"river_name":"南腊河","water_system":"澜沧江","lybm":"9","sxbm":"02","adag":"版纳分局            "},{"val":55.0,"level_index":4,"id":"90426250","name":"哈尼田","lng":103.2241,"lat":22.8246,"type":"PP","type_name":"雨量站","subjection":"红河分局","address":"红河州金平县阿得博哈尼田村","area_id":"532530","basin_name":"红河","is_over":true,"river_name":"沙依坡河","water_system":"李仙江","lybm":"9","sxbm":"04","adag":"红河分局            "},{"val":55.0,"level_index":4,"id":"90521820","name":"长地方","lng":97.966667,"lat":24.866667,"type":"PP","type_name":"雨量站","subjection":"德宏分局","address":"德宏州盈江县平原镇长地方村","area_id":"533123","basin_name":"伊洛瓦底江","is_over":true,"river_name":"南朗河","water_system":"盏达河","lybm":"9","sxbm":"05","adag":"德宏分局            "},{"val":54.5,"level_index":4,"id":"90237150","name":"班康","lng":99.600831,"lat":23.5119,"type":"PP","type_name":"雨量站","subjection":"临沧分局","address":"临沧市耿马县四排山乡班康村","area_id":"530926","basin_name":"澜沧江","is_over":true,"river_name":"班康河","water_system":"澜沧江","lybm":"9","sxbm":"02","adag":"临沧分局            "},{"val":54.5,"level_index":4,"id":"90330950","name":"甘塘","lng":99.044222,"lat":23.724833,"type":"PP","type_name":"雨量站","subjection":"临沧分局","address":"临沧市镇康县南伞镇甘塘村","area_id":"530924","basin_name":"怒江","is_over":true,"river_name":"南捧河","water_system":"南汀河","lybm":"9","sxbm":"03","adag":"临沧分局            "},{"val":54.5,"level_index":4,"id":"90434000","name":"木腊","lng":104.245874,"lat":23.005012,"type":"PP","type_name":"雨量站","subjection":"文山分局","address":"文山州马关县仁和镇木腊村","area_id":"532625","basin_name":"红河","is_over":true,"river_name":"落却河","water_system":"泸江","lybm":"9","sxbm":"04","adag":"文山分局            "},{"val":54.0,"level_index":4,"id":"90242800","name":"大曼吕","lng":100.5214,"lat":22.1897,"type":"PP","type_name":"雨量站","subjection":"版纳分局","address":"版纳州勐海县勐宋乡曼吕村委会曼吕村","area_id":"532822","basin_name":"澜沧江","is_over":true,"river_name":"曼浪河","water_system":"澜沧江","lybm":"9","sxbm":"02","adag":"版纳分局            "},{"val":53.5,"level_index":4,"id":"80709440","name":"田房","lng":105.425374,"lat":23.772941,"type":"ZQ","type_name":"河道水文站","subjection":"文山分局","address":"文山州广南县八宝镇木烟村","area_id":"532627","basin_name":"珠江","flood_val":1121.420,"ensure_val":1121.940,"is_over":true,"river_name":"八宝河","water_system":"西江","lybm":"8","sxbm":"07","adag":"文山分局            "},{"val":52.5,"level_index":4,"id":"90523960","name":"弄丘","lng":98.301666,"lat":24.190277,"type":"PP","type_name":"雨量站","subjection":"德宏分局","address":"德宏州芒市遮放镇弄丘村村委会","area_id":"533103","basin_name":"伊洛瓦底江","is_over":true,"river_name":"弄丘河","water_system":"南木冷河","lybm":"9","sxbm":"05","adag":"德宏分局            "},{"val":51.5,"level_index":4,"id":"90217020","name":"勐腊","lng":101.561667,"lat":21.484444,"type":"ZZ","type_name":"河道水位站","subjection":"版纳分局","address":"版纳州勐腊县","area_id":"532823","basin_name":"澜沧江","flood_val":637.200,"ensure_val":637.710,"is_over":true,"river_name":"补角河","water_system":"澜沧江","lybm":"9","sxbm":"02","adag":"版纳分局            "},{"val":51.5,"level_index":4,"id":"90243200","name":"三达山","lng":100.841,"lat":22.0244,"type":"PP","type_name":"雨量站","subjection":"版纳分局","address":"版纳州景洪市允景洪街道办三达山道班","area_id":"532801","basin_name":"澜沧江","is_over":true,"river_name":"菜阳河","water_system":"澜沧江","lybm":"9","sxbm":"02","adag":"版纳分局            "},{"val":51.5,"level_index":4,"id":"90505400","name":"陇川","lng":97.771921,"lat":24.184476,"type":"ZQ","type_name":"河道水文站","subjection":"德宏分局","address":"德宏州陇川县章凤镇迭撒桥","area_id":"533124","basin_name":"伊洛瓦底江","flood_val":930.300,"ensure_val":931.000,"is_over":true,"river_name":"南宛河","water_system":"瑞丽江","lybm":"9","sxbm":"05","station_position":45,"adag":"德宏分局            "},{"val":51.0,"level_index":4,"id":"90243810","name":"曼燕","lng":100.1956,"lat":22.035,"type":"PP","type_name":"雨量站","subjection":"版纳分局","address":"版纳州勐海县勐遮镇曼燕村","area_id":"532822","basin_name":"澜沧江","is_over":true,"river_name":"南哈河","water_system":"澜沧江","lybm":"9","sxbm":"02","adag":"版纳分局            "},{"val":50.5,"level_index":4,"id":"90243910","name":"南咪细宰","lng":100.2656,"lat":22.0903,"type":"PP","type_name":"雨量站","subjection":"版纳分局","address":"版纳州勐海县勐遮镇南咪细宰水库","area_id":"532822","basin_name":"澜沧江","is_over":true,"river_name":"南录河","water_system":"澜沧江","lybm":"9","sxbm":"02","adag":"版纳分局            "},{"val":50.5,"level_index":4,"id":"90245350","name":"营盘山","lng":101.5161,"lat":22.6461,"type":"PP","type_name":"雨量站","subjection":"普洱分局","address":"普洱市江城县康平乡营盘山村","area_id":"530826","basin_name":"澜沧江","is_over":true,"river_name":"曼连河","water_system":"澜沧江","lybm":"9","sxbm":"02","adag":"普洱分局            "},{"val":50.5,"level_index":4,"id":"90247200","name":"勐捧","lng":101.3078,"lat":21.4533,"type":"PP","type_name":"雨量站","subjection":"版纳分局","address":"版纳州勐腊县勐捧镇镇政府","area_id":"532823","basin_name":"澜沧江","is_over":true,"river_name":"南腊河","water_system":"澜沧江","lybm":"9","sxbm":"02","adag":"版纳分局            "},{"val":50.5,"level_index":4,"id":"90433900","name":"马西坡","lng":104.180822,"lat":23.008013,"type":"PP","type_name":"雨量站","subjection":"文山分局","address":"文山州马关县大栗树乡冬瓜林村","area_id":"532625","basin_name":"红河","is_over":true,"river_name":"落却河","water_system":"泸江","lybm":"9","sxbm":"04","adag":"文山分局            "},{"val":50.5,"level_index":4,"id":"90505800","name":"瑞八桥","lng":97.633333,"lat":23.883734,"type":"ZQ","type_name":"河道水文站","subjection":"德宏分局","address":"德宏州瑞丽市弄岛镇雷允村","area_id":"533102","basin_name":"伊洛瓦底江","flood_val":746.100,"ensure_val":746.600,"is_over":true,"river_name":"南宛河","water_system":"瑞丽江","lybm":"9","sxbm":"05","station_position":135,"adag":"德宏分局            "},{"val":50.0,"level_index":4,"id":"90246400","name":"易武","lng":101.4667,"lat":21.9833,"type":"PP","type_name":"雨量站","subjection":"版纳分局","address":"版纳州勐腊县易武乡中学","area_id":"532823","basin_name":"澜沧江","is_over":true,"river_name":"洒代河","water_system":"澜沧江","lybm":"9","sxbm":"02","adag":"版纳分局            "},{"val":50.0,"level_index":4,"id":"90522960","name":"龙江","lng":98.684245,"lat":24.757749,"type":"PP","type_name":"雨量站","subjection":"保山分局","address":"保山市龙陵县龙江乡龙江村","area_id":"530523","basin_name":"伊洛瓦底江","is_over":true,"river_name":"龙川江","water_system":"瑞丽江","lybm":"9","sxbm":"05","adag":"保山分局            "},{"val":49.5,"level_index":3,"id":"90402800","name":"小河沟","lng":103.2286,"lat":22.7705,"type":"ZQ","type_name":"河道水文站","subjection":"红河分局","address":"红河州金平县金河镇","area_id":"532530","basin_name":"红河","flood_val":1192.900,"ensure_val":1193.900,"is_over":true,"river_name":"金平河","water_system":"李仙江","lybm":"9","sxbm":"04","adag":"红河分局            "},{"val":49.5,"level_index":3,"id":"90435000","name":"都龙","lng":104.521238,"lat":22.910446,"type":"PP","type_name":"雨量站","subjection":"文山分局","address":"文山州马关县都龙镇都龙村","area_id":"532625","basin_name":"红河","is_over":true,"river_name":"小白河","water_system":"泸江","lybm":"9","sxbm":"04","adag":"文山分局            "},{"val":49.5,"level_index":3,"id":"90502050","name":"黄草坝","lng":98.7638,"lat":24.641232,"type":"ZQ","type_name":"河道水文站","subjection":"保山分局","address":"保山市龙陵县龙新乡黄草坝村","area_id":"530523","basin_name":"伊洛瓦底江","is_over":true,"river_name":"香柏河","water_system":"伊洛瓦底江","lybm":"9","sxbm":"05","adag":"保山分局            "},{"val":49.0,"level_index":3,"id":"90237880","name":"南直","lng":99.85375,"lat":23.263139,"type":"PP","type_name":"雨量站","subjection":"临沧分局","address":"临沧市双江县邦丙乡大南直村","area_id":"530925","basin_name":"澜沧江","is_over":true,"river_name":"南直河","water_system":"澜沧江","lybm":"9","sxbm":"02","adag":"临沧分局            "},{"val":49.0,"level_index":3,"id":"90329100","name":"富荣","lng":99.145722,"lat":23.516722,"type":"PP","type_name":"雨量站","subjection":"临沧分局","address":"临沧市耿马县孟定镇富荣村完小","area_id":"530926","basin_name":"怒江","is_over":true,"river_name":"南汀河","water_system":"南汀河","lybm":"9","sxbm":"03","adag":"临沧分局            "},{"val":49.0,"level_index":3,"id":"90520010","name":"黑河","lng":97.8477,"lat":25.0589,"type":"PP","type_name":"雨量站","subjection":"德宏分局","address":"德宏州盈江县卡场镇黑河村","area_id":"533123","basin_name":"伊洛瓦底江","is_over":true,"river_name":"黑河","water_system":"勐戛河","lybm":"9","sxbm":"05","adag":"德宏分局            "},{"val":48.5,"level_index":3,"id":"90238360","name":"富东","lng":99.9975,"lat":23.1253,"type":"PP","type_name":"雨量站","subjection":"普洱分局","address":"普洱市澜沧县富东乡水务站","area_id":"530828","basin_name":"澜沧江","is_over":true,"river_name":"富东小河","water_system":"澜沧江","lybm":"9","sxbm":"02","adag":"普洱分局            "},{"val":48.5,"level_index":3,"id":"90242870","name":"曼戈龙","lng":100.8219,"lat":22.065,"type":"PP","type_name":"雨量站","subjection":"版纳分局","address":"版纳州景洪市勐养镇曼戈龙村","area_id":"532801","basin_name":"澜沧江","is_over":true,"river_name":"回永河","water_system":"澜沧江","lybm":"9","sxbm":"02","adag":"版纳分局            "},{"val":48.5,"level_index":3,"id":"90247280","name":"勐腊水利局","lng":101.5664,"lat":21.4803,"type":"PP","type_name":"雨量站","subjection":"版纳分局","address":"版纳州勐腊县勐腊镇县水利局","area_id":"532823","basin_name":"澜沧江","is_over":true,"river_name":"南腊河","water_system":"澜沧江","lybm":"9","sxbm":"02","adag":"版纳分局            "},{"val":48.5,"level_index":3,"id":"90328600","name":"大兴","lng":99.806028,"lat":23.794444,"type":"PP","type_name":"雨量站","subjection":"临沧分局","address":"临沧市耿马县大兴乡大兴村大兴中心完小","area_id":"530926","basin_name":"怒江","is_over":true,"river_name":"忙茂河","water_system":"南汀河","lybm":"9","sxbm":"03","adag":"临沧分局            "},{"val":48.5,"level_index":3,"id":"90332110","name":"英腊","lng":99.4708,"lat":22.5178,"type":"PP","type_name":"雨量站","subjection":"普洱分局","address":"普洱市西盟县翁嘎科乡英腊水库","area_id":"530829","basin_name":"怒江","is_over":true,"river_name":"班岳河","water_system":"南卡江","lybm":"9","sxbm":"03","adag":"普洱分局            "},{"val":48.5,"level_index":3,"id":"90501400","name":"三岔河","lng":98.219116,"lat":25.43037,"type":"RR","type_name":"水库水文站","subjection":"三岔河水库管理局","address":"保山市腾冲市","area_id":"530581","basin_name":"伊洛瓦底江","is_over":true,"river_name":"三岔河","water_system":"槟榔江","lybm":"9","sxbm":"05","adag":"保山分局            "},{"val":48.0,"level_index":3,"id":"90241860","name":"谦六龙潭","lng":100.2019,"lat":22.8922,"type":"PP","type_name":"雨量站","subjection":"普洱分局","address":"普洱市澜沧县谦六乡龙潭村","area_id":"530828","basin_name":"澜沧江","is_over":true,"river_name":"大坝河","water_system":"澜沧江","lybm":"9","sxbm":"02","adag":"普洱分局            "},{"val":48.0,"level_index":3,"id":"90246160","name":"龙帕水库","lng":101.0878,"lat":21.9892,"type":"PP","type_name":"雨量站","subjection":"版纳分局","address":"版纳州景洪市基诺乡龙帕村","area_id":"532801","basin_name":"澜沧江","is_over":true,"river_name":"勒么河","water_system":"澜沧江","lybm":"9","sxbm":"02","adag":"版纳分局            "},{"val":48.0,"level_index":3,"id":"90430100","name":"木亮","lng":104.792367,"lat":23.022857,"type":"PP","type_name":"雨量站","subjection":"文山分局","address":"文山州麻栗坡县麻栗镇木亮村","area_id":"532624","basin_name":"红河","is_over":true,"river_name":"盘龙河","water_system":"泸江","lybm":"9","sxbm":"04","adag":"文山分局            "},{"val":47.5,"level_index":3,"id":"90134000","name":"倮姑","lng":103.699,"lat":23.1989,"type":"PP","type_name":"雨量站","subjection":"红河分局","address":"红河州屏边县新华乡倮姑","area_id":"532523","basin_name":"红河","is_over":true,"river_name":"美乐河","water_system":"元江","lybm":"9","sxbm":"01","adag":"红河分局            "},{"val":47.5,"level_index":3,"id":"90134200","name":"新华","lng":103.6954,"lat":23.2567,"type":"PP","type_name":"雨量站","subjection":"红河分局","address":"红河州屏边县新华乡纪街村","area_id":"532523","basin_name":"红河","is_over":true,"river_name":"南溪河","water_system":"元江","lybm":"9","sxbm":"01","adag":"红河分局            "},{"val":47.5,"level_index":3,"id":"90134250","name":"白沙坡","lng":103.8348,"lat":23.2166,"type":"PP","type_name":"雨量站","subjection":"红河分局","address":"红河州屏边县和平乡白沙坡村","area_id":"532523","basin_name":"红河","is_over":true,"river_name":"南溪河","water_system":"元江","lybm":"9","sxbm":"01","adag":"红河分局            "},{"val":47.5,"level_index":3,"id":"90235210","name":"双江大文","lng":99.996389,"lat":23.344389,"type":"PP","type_name":"雨量站","subjection":"临沧分局","address":"临沧市双江县大文乡计生服务所","area_id":"530925","basin_name":"澜沧江","is_over":true,"river_name":"仟信河","water_system":"澜沧江","lybm":"9","sxbm":"02","adag":"临沧分局            "},{"val":47.5,"level_index":3,"id":"90238270","name":"澜沧响水河","lng":100.3931,"lat":22.4669,"type":"PP","type_name":"雨量站","subjection":"普洱分局","address":"普洱市澜沧县糯扎渡镇响水河村","area_id":"530828","basin_name":"澜沧江","is_over":true,"river_name":"响水河","water_system":"澜沧江","lybm":"9","sxbm":"02","adag":"普洱分局            "},{"val":47.5,"level_index":3,"id":"90325870","name":"平河","lng":98.664444,"lat":24.2725,"type":"PP","type_name":"雨量站","subjection":"德宏分局","address":"德宏州芒市风平镇平河村村委会","area_id":"533103","basin_name":"怒江","is_over":true,"river_name":"平河","water_system":"怒江","lybm":"9","sxbm":"03","adag":"德宏分局            "},{"val":47.5,"level_index":3,"id":"90523980","name":"遮冒","lng":98.142777,"lat":24.204722,"type":"PP","type_name":"雨量站","subjection":"德宏分局","address":"德宏州芒市遮放镇遮冒村村委会","area_id":"533103","basin_name":"伊洛瓦底江","is_over":true,"river_name":"龙川江","water_system":"瑞丽江","lybm":"9","sxbm":"05","adag":"德宏分局            "},{"val":47.5,"level_index":3,"id":"90524460","name":"勐旺","lng":98.558611,"lat":24.2825,"type":"PP","type_name":"雨量站","subjection":"德宏分局","address":"德宏州芒市勐戛镇勐旺村卫生室","area_id":"533103","basin_name":"伊洛瓦底江","is_over":true,"river_name":"南公河","water_system":"果朗河","lybm":"9","sxbm":"05","adag":"德宏分局            "},{"val":47.0,"level_index":3,"id":"90247290","name":"南亮","lng":101.5444,"lat":21.395,"type":"PP","type_name":"雨量站","subjection":"版纳分局","address":"版纳州勐腊县勐腊镇南亮村","area_id":"532823","basin_name":"澜沧江","is_over":true,"river_name":"贺南戛","water_system":"澜沧江","lybm":"9","sxbm":"02","adag":"版纳分局            "},{"val":46.5,"level_index":3,"id":"90242000","name":"大新寨","lng":100.4122,"lat":22.0419,"type":"PP","type_name":"雨量站","subjection":"版纳分局","address":"版纳州勐海县勐海镇勐翁村委会大新寨","area_id":"532822","basin_name":"澜沧江","is_over":true,"river_name":"南啊河","water_system":"澜沧江","lybm":"9","sxbm":"02","adag":"版纳分局            "},{"val":46.5,"level_index":3,"id":"90244760","name":"曼岭","lng":101.0,"lat":21.9333,"type":"PP","type_name":"雨量站","subjection":"版纳分局","address":"版纳州景洪市勐罕镇曼岭水库","area_id":"532801","basin_name":"澜沧江","is_over":true,"river_name":"南木塞河","water_system":"澜沧江","lybm":"9","sxbm":"02","adag":"版纳分局            "},{"val":46.5,"level_index":3,"id":"90247650","name":"东主","lng":99.8656,"lat":22.6564,"type":"PP","type_name":"雨量站","subjection":"普洱分局","address":"普洱市澜沧县竹塘乡东主村","area_id":"530828","basin_name":"澜沧江","is_over":true,"river_name":"南朗河","water_system":"澜沧江","lybm":"9","sxbm":"02","adag":"普洱分局            "},{"val":46.0,"level_index":3,"id":"90224005","name":"漕涧农场","lng":99.117,"lat":25.767,"type":"PP","type_name":"雨量站","subjection":"大理分局","address":"大理州云龙县漕涧镇农场老场部","area_id":"532929","basin_name":"澜沧江","is_over":true,"river_name":"漕涧河","water_system":"澜沧江","lybm":"9","sxbm":"02","adag":"大理分局            "},{"val":46.0,"level_index":3,"id":"90326400","name":"户东","lng":100.003611,"lat":23.811056,"type":"PP","type_name":"雨量站","subjection":"临沧分局","address":"临沧市临翔区博尚镇户东村","area_id":"530902","basin_name":"怒江","is_over":true,"river_name":"勐托河","water_system":"南汀河","lybm":"9","sxbm":"03","adag":"临沧分局            "},{"val":46.0,"level_index":3,"id":"90428600","name":"高枧槽","lng":103.984773,"lat":23.372912,"type":"PP","type_name":"雨量站","subjection":"文山分局","address":"文山州文山市坝心乡高枧槽村","area_id":"532601","basin_name":"红河","is_over":true,"river_name":"顺甸河","water_system":"泸江","lybm":"9","sxbm":"04","adag":"文山分局            "},{"val":45.5,"level_index":3,"id":"90234260","name":"景谷半坡","lng":100.1886,"lat":23.2156,"type":"PP","type_name":"雨量站","subjection":"普洱分局","address":"普洱市景谷县半坡乡半坡村","area_id":"530824","basin_name":"澜沧江","is_over":true,"river_name":"半坡河","water_system":"澜沧江","lybm":"9","sxbm":"02","adag":"普洱分局            "},{"val":45.5,"level_index":3,"id":"90237870","name":"忙安","lng":99.763437,"lat":23.26312,"type":"PP","type_name":"雨量站","subjection":"临沧分局","address":"临沧市双江县邦丙乡忙安村卫生室","area_id":"530925","basin_name":"澜沧江","is_over":true,"river_name":"南直河","water_system":"澜沧江","lybm":"9","sxbm":"02","adag":"临沧分局            "},{"val":45.5,"level_index":3,"id":"90331800","name":"腊福","lng":99.41,"lat":22.1544,"type":"PP","type_name":"雨量站","subjection":"普洱分局","address":"普洱市孟连县勐马镇腊福水库","area_id":"530827","basin_name":"怒江","is_over":true,"river_name":"腊福河","water_system":"南卡江","lybm":"9","sxbm":"03","adag":"普洱分局            "},{"val":45.5,"level_index":3,"id":"90332060","name":"力所","lng":99.4581,"lat":22.6525,"type":"PP","type_name":"雨量站","subjection":"普洱分局","address":"普洱市西盟县力所乡中心小学","area_id":"530829","basin_name":"怒江","is_over":true,"river_name":"南康河","water_system":"南卡江","lybm":"9","sxbm":"03","adag":"普洱分局            "},{"val":45.5,"level_index":3,"id":"90521170","name":"清水","lng":98.460556,"lat":24.939167,"type":"PP","type_name":"雨量站","subjection":"保山分局","address":"保山市腾冲市清水乡朱星街","area_id":"530581","basin_name":"伊洛瓦底江","is_over":true,"river_name":"热海河","water_system":"大盈江","lybm":"9","sxbm":"05","adag":"保山分局            "},{"val":45.0,"level_index":3,"id":"90244140","name":"曼尾","lng":100.4931,"lat":21.9914,"type":"PP","type_name":"雨量站","subjection":"版纳分局","address":"版纳州勐海县勐海镇曼尾村","area_id":"532822","basin_name":"澜沧江","is_over":true,"river_name":"流沙河支流","water_system":"澜沧江","lybm":"9","sxbm":"02","adag":"版纳分局            "},{"val":45.0,"level_index":3,"id":"90306820","name":"帮海","lng":99.083556,"lat":24.033972,"type":"ZZ","type_name":"河道水位站","subjection":"临沧分局","address":"临沧市镇康县凤尾镇帮海村","area_id":"530924","basin_name":"怒江","flood_val":960.100,"ensure_val":960.600,"is_over":true,"river_name":"南捧河","water_system":"南汀河","lybm":"9","sxbm":"03","adag":"临沧分局            "},{"val":45.0,"level_index":3,"id":"90325860","name":"赛岗","lng":98.576111,"lat":24.189166,"type":"PP","type_name":"雨量站","subjection":"德宏分局","address":"德宏州芒市中山乡赛岗村委会","area_id":"533103","basin_name":"怒江","is_over":true,"river_name":"晒干河","water_system":"怒江","lybm":"9","sxbm":"03","adag":"德宏分局            "},{"val":45.0,"level_index":3,"id":"90331400","name":"河外","lng":98.883917,"lat":23.560806,"type":"PP","type_name":"雨量站","subjection":"临沧分局","address":"临沧市耿马县孟定镇河外中学","area_id":"530926","basin_name":"怒江","is_over":true,"river_name":"清水河","water_system":"南汀河","lybm":"9","sxbm":"03","adag":"临沧分局            "},{"val":45.0,"level_index":3,"id":"90503900","name":"畹町","lng":98.001761,"lat":24.051767,"type":"ZQ","type_name":"河道水文站","subjection":"德宏分局","address":"德宏州瑞丽市畹町经济开发区","area_id":"533102","basin_name":"伊洛瓦底江","flood_val":773.500,"ensure_val":774.200,"is_over":true,"river_name":"畹町河","water_system":"瑞丽江","lybm":"9","sxbm":"05","station_position":45,"adag":"德宏分局            "},{"val":44.5,"level_index":3,"id":"90246200","name":"龙帕","lng":101.1,"lat":21.9833,"type":"PP","type_name":"雨量站","subjection":"版纳分局","address":"版纳州景洪市基诺乡龙帕村","area_id":"532801","basin_name":"澜沧江","is_over":true,"river_name":"龙帕河","water_system":"澜沧江","lybm":"9","sxbm":"02","adag":"版纳分局            "},{"val":44.5,"level_index":3,"id":"90247270","name":"补崩","lng":101.5564,"lat":21.4886,"type":"PP","type_name":"雨量站","subjection":"版纳分局","address":"版纳州勐腊县勐腊镇补崩村","area_id":"532823","basin_name":"澜沧江","is_over":true,"river_name":"南腊河","water_system":"澜沧江","lybm":"9","sxbm":"02","adag":"版纳分局            "},{"val":44.5,"level_index":3,"id":"90323240","name":"绕廊街","lng":98.8667,"lat":24.5833,"type":"PP","type_name":"雨量站","subjection":"保山分局","address":"保山市龙陵县龙新乡绕廊街","area_id":"530523","basin_name":"怒江","is_over":true,"river_name":"绕廊河","water_system":"怒江","lybm":"9","sxbm":"03","adag":"保山分局            "},{"val":44.5,"level_index":3,"id":"90328860","name":"勐简大寨","lng":99.412694,"lat":23.728444,"type":"PP","type_name":"雨量站","subjection":"临沧分局","address":"临沧市耿马县勐简乡大寨村","area_id":"530926","basin_name":"怒江","is_over":true,"river_name":"铁厂河","water_system":"南汀河","lybm":"9","sxbm":"03","adag":"临沧分局            "},{"val":44.5,"level_index":3,"id":"90329050","name":"孟定崇岗","lng":99.234944,"lat":23.615722,"type":"PP","type_name":"雨量站","subjection":"临沧分局","address":"临沧市耿马县孟定镇崇岗村","area_id":"530926","basin_name":"怒江","is_over":true,"river_name":"南望河","water_system":"南汀河","lybm":"9","sxbm":"03","adag":"临沧分局            "},{"val":44.5,"level_index":3,"id":"90329060","name":"芒撒","lng":99.092222,"lat":23.459111,"type":"PP","type_name":"雨量站","subjection":"临沧分局","address":"临沧市耿马县孟定镇芒撒村完小","area_id":"530926","basin_name":"怒江","is_over":true,"river_name":"南袜河","water_system":"南汀河","lybm":"9","sxbm":"03","adag":"临沧分局            "},{"val":44.0,"level_index":3,"id":"90246860","name":"勐伴（水保站）","lng":101.65,"lat":21.7333,"type":"PP","type_name":"雨量站","subjection":"版纳分局","address":"版纳州勐腊县勐伴镇水土保持管理站","area_id":"532823","basin_name":"澜沧江","is_over":true,"river_name":"南腊河","water_system":"澜沧江","lybm":"9","sxbm":"02","adag":"版纳分局            "},{"val":43.5,"level_index":3,"id":"90247260","name":"曼浪","lng":101.6631,"lat":21.4814,"type":"PP","type_name":"雨量站","subjection":"版纳分局","address":"版纳州勐腊县勐腊镇曼浪村","area_id":"532823","basin_name":"澜沧江","is_over":true,"river_name":"腊蚌河","water_system":"澜沧江","lybm":"9","sxbm":"02","adag":"版纳分局            "},{"val":43.5,"level_index":3,"id":"90434900","name":"夹寒箐","lng":104.404322,"lat":22.894031,"type":"PP","type_name":"雨量站","subjection":"文山分局","address":"文山州马关县夹寒箐乡夹寒箐村","area_id":"532625","basin_name":"红河","is_over":true,"river_name":"响水河","water_system":"泸江","lybm":"9","sxbm":"04","adag":"文山分局            "},{"val":43.5,"level_index":3,"id":"90522650","name":"龙窝田","lng":98.570556,"lat":25.164167,"type":"PP","type_name":"雨量站","subjection":"保山分局","address":"保山市腾冲市曲石乡回街村","area_id":"530581","basin_name":"伊洛瓦底江","is_over":true,"river_name":"龙川江","water_system":"瑞丽江","lybm":"9","sxbm":"05","adag":"保山分局            "},{"val":43.0,"level_index":3,"id":"90226500","name":"洱源西山","lng":99.673649,"lat":25.962701,"type":"PP","type_name":"雨量站","subjection":"大理分局","address":"大理州洱源县西山乡乡政府","area_id":"532930","basin_name":"澜沧江","is_over":true,"river_name":"溪登河","water_system":"澜沧江","lybm":"9","sxbm":"02","adag":"大理分局            "},{"val":43.0,"level_index":3,"id":"90237180","name":"南美","lng":99.90625,"lat":23.877667,"type":"PP","type_name":"雨量站","subjection":"临沧分局","address":"临沧市临翔区南美乡农业所","area_id":"530902","basin_name":"澜沧江","is_over":true,"river_name":"勐勐河","water_system":"澜沧江","lybm":"9","sxbm":"02","adag":"临沧分局            "},{"val":43.0,"level_index":3,"id":"90237850","name":"那赛","lng":99.727611,"lat":23.492167,"type":"PP","type_name":"雨量站","subjection":"临沧分局","address":"临沧市双江县沙河乡那赛村","area_id":"530925","basin_name":"澜沧江","is_over":true,"river_name":"大沙河","water_system":"澜沧江","lybm":"9","sxbm":"02","adag":"临沧分局            "},{"val":43.0,"level_index":3,"id":"90245460","name":"景洪高山","lng":101.31,"lat":22.4622,"type":"PP","type_name":"雨量站","subjection":"版纳分局","address":"版纳州景洪市普文镇高山村","area_id":"532801","basin_name":"澜沧江","is_over":true,"river_name":"普文河","water_system":"澜沧江","lybm":"9","sxbm":"02","adag":"版纳分局            "},{"val":43.0,"level_index":3,"id":"90247460","name":"藤蔑山老寨","lng":101.3258,"lat":21.78,"type":"PP","type_name":"雨量站","subjection":"版纳分局","address":"版纳州勐腊县关累镇藤蔑山老寨","area_id":"532823","basin_name":"澜沧江","is_over":true,"river_name":"南腊河","water_system":"澜沧江","lybm":"9","sxbm":"02","adag":"版纳分局            "},{"val":43.0,"level_index":3,"id":"90331200","name":"木厂","lng":99.153611,"lat":23.752194,"type":"PP","type_name":"雨量站","subjection":"临沧分局","address":"临沧市镇康县木厂乡下寨村","area_id":"530924","basin_name":"怒江","is_over":true,"river_name":"南捧河","water_system":"南汀河","lybm":"9","sxbm":"03","adag":"临沧分局            "},{"val":43.0,"level_index":3,"id":"90331520","name":"法保","lng":99.063322,"lat":23.257268,"type":"PP","type_name":"雨量站","subjection":"临沧分局","address":"临沧市沧源县班洪乡法保村","area_id":"530927","basin_name":"怒江","is_over":true,"river_name":"南滚河","water_system":"萨尔温江","lybm":"9","sxbm":"03","adag":"临沧分局            "},{"val":43.0,"level_index":3,"id":"90331900","name":"孟连勐啊","lng":99.2072,"lat":22.1867,"type":"PP","type_name":"雨量站","subjection":"普洱分局","address":"普洱市孟连县勐马镇勐啊村","area_id":"530827","basin_name":"怒江","is_over":true,"river_name":"南马河","water_system":"南卡江","lybm":"9","sxbm":"03","adag":"普洱分局            "},{"val":43.0,"level_index":3,"id":"90503300","name":"户弄","lng":98.186684,"lat":24.21888,"type":"ZQ","type_name":"河道水文站","subjection":"德宏分局","address":"德宏州芒市遮放镇芒瓦村","area_id":"533103","basin_name":"伊洛瓦底江","flood_val":788.900,"ensure_val":790.500,"is_over":true,"river_name":"芒市大河","water_system":"瑞丽江","lybm":"9","sxbm":"05","station_position":225,"adag":"德宏分局            "},{"val":42.5,"level_index":3,"id":"90204110","name":"大坪","lng":99.113271,"lat":25.570968,"type":"ZQ","type_name":"河道水文站","subjection":"大理分局","address":"大理州云龙县漕涧镇大坪村","area_id":"532929","basin_name":"澜沧江","flood_val":1880.800,"ensure_val":1881.200,"is_over":true,"river_name":"漕涧河","water_system":"澜沧江","lybm":"9","sxbm":"02","adag":"大理分局            "},{"val":42.5,"level_index":3,"id":"90234800","name":"南代河","lng":100.1255,"lat":23.650694,"type":"PP","type_name":"雨量站","subjection":"临沧分局","address":"临沧市临翔区圈内乡南代河村","area_id":"530902","basin_name":"澜沧江","is_over":true,"river_name":"南代河","water_system":"澜沧江","lybm":"9","sxbm":"02","adag":"临沧分局            "},{"val":42.5,"level_index":3,"id":"90241610","name":"糯埂","lng":99.6031,"lat":23.0375,"type":"PP","type_name":"雨量站","subjection":"普洱分局","address":"普洱市澜沧县木戛乡糯埂水库","area_id":"530828","basin_name":"澜沧江","is_over":true,"river_name":"黑河","water_system":"澜沧江","lybm":"9","sxbm":"02","adag":"普洱分局            "},{"val":42.5,"level_index":3,"id":"90424360","name":"巴东","lng":102.4567,"lat":22.9353,"type":"PP","type_name":"雨量站","subjection":"红河分局","address":"红河州绿春县三猛乡巴东村","area_id":"532531","basin_name":"红河","is_over":true,"river_name":"岔弄河","water_system":"红河","lybm":"9","sxbm":"04","adag":"红河分局            "},{"val":42.5,"level_index":3,"id":"90502000","name":"腾龙桥","lng":98.650079,"lat":24.671459,"type":"ZQ","type_name":"河道水文站","subjection":"保山分局","address":"保山市龙陵县龙陵镇腾龙桥","area_id":"530523","basin_name":"伊洛瓦底江","flood_val":1106.610,"ensure_val":1107.210,"is_over":true,"river_name":"龙川江","water_system":"瑞丽江","lybm":"9","sxbm":"05","adag":"保山分局            "},{"val":42.5,"level_index":3,"id":"90525040","name":"南京里","lng":97.836388,"lat":24.092777,"type":"PP","type_name":"雨量站","subjection":"德宏分局","address":"德宏州瑞丽市勐秀乡南京里村村委会","area_id":"533102","basin_name":"伊洛瓦底江","is_over":true,"river_name":"帕色河","water_system":"瑞丽江","lybm":"9","sxbm":"05","adag":"德宏分局            "},{"val":42.0,"level_index":3,"id":"90223430","name":"师井","lng":99.2884,"lat":26.15616,"type":"PP","type_name":"雨量站","subjection":"大理分局","address":"大理州云龙县检槽乡师井村","area_id":"532929","basin_name":"澜沧江","is_over":true,"river_name":"检槽河","water_system":"澜沧江","lybm":"9","sxbm":"02","adag":"大理分局            "},{"val":42.0,"level_index":3,"id":"90307200","name":"南康河","lng":99.511932,"lat":22.701229,"type":"ZQ","type_name":"河道水文站","subjection":"普洱分局","address":"普洱市西盟县勐梭镇南康桥村","area_id":"530829","basin_name":"怒江","flood_val":686.550,"ensure_val":686.790,"is_over":true,"river_name":"南康河","water_system":"南卡江","lybm":"9","sxbm":"03","adag":"普洱分局            "},{"val":42.0,"level_index":3,"id":"90326620","name":"马鹿坑","lng":99.952028,"lat":23.893611,"type":"PP","type_name":"雨量站","subjection":"临沧分局","address":"临沧市临翔区章驮乡马鹿坑水库","area_id":"530902","basin_name":"怒江","is_over":true,"river_name":"西河","water_system":"南汀河","lybm":"9","sxbm":"03","adag":"临沧分局            "},{"val":42.0,"level_index":3,"id":"90524920","name":"芒令","lng":97.958055,"lat":24.0575,"type":"PP","type_name":"雨量站","subjection":"德宏分局","address":"德宏州瑞丽市勐卯镇芒令村村委会","area_id":"533102","basin_name":"伊洛瓦底江","is_over":true,"river_name":"瑞丽江","water_system":"瑞丽江","lybm":"9","sxbm":"05","adag":"德宏分局            "},{"val":42.0,"level_index":3,"id":"90525080","name":"姐告","lng":97.881388,"lat":23.981666,"type":"PP","type_name":"雨量站","subjection":"德宏分局","address":"德宏州瑞丽市姐告经济开发区管委会","area_id":"533102","basin_name":"伊洛瓦底江","is_over":true,"river_name":"瑞丽江","water_system":"瑞丽江","lybm":"9","sxbm":"05","adag":"德宏分局            "},{"val":41.5,"level_index":3,"id":"90213840","name":"曼广掌","lng":100.686389,"lat":21.576111,"type":"ZQ","type_name":"河道水文站","subjection":"版纳分局","address":"版纳州景洪市勐龙镇","area_id":"532801","basin_name":"澜沧江","flood_val":626.500,"ensure_val":627.970,"is_over":true,"river_name":"南阿河","water_system":"澜沧江","lybm":"9","sxbm":"02","adag":"版纳分局            "},{"val":41.5,"level_index":3,"id":"90216440","name":"曼赛","lng":101.565278,"lat":21.480278,"type":"ZZ","type_name":"河道水位站","subjection":"版纳分局","address":"版纳州勐腊县","area_id":"532823","basin_name":"澜沧江","flood_val":632.780,"ensure_val":633.290,"is_over":true,"river_name":"回岗河","water_system":"澜沧江","lybm":"9","sxbm":"02","adag":"版纳分局            "},{"val":41.5,"level_index":3,"id":"90238560","name":"澜沧东河","lng":100.0669,"lat":22.9242,"type":"PP","type_name":"雨量站","subjection":"普洱分局","address":"普洱市澜沧县东河乡乡政府","area_id":"530828","basin_name":"澜沧江","is_over":true,"river_name":"芒怕河","water_system":"澜沧江","lybm":"9","sxbm":"02","adag":"普洱分局            "},{"val":41.5,"level_index":3,"id":"90243700","name":"西定","lng":100.1639,"lat":21.9289,"type":"PP","type_name":"雨量站","subjection":"版纳分局","address":"版纳州勐海县西定乡西定村委会大寨村","area_id":"532822","basin_name":"澜沧江","is_over":true,"river_name":"南木央河","water_system":"澜沧江","lybm":"9","sxbm":"02","adag":"版纳分局            "},{"val":41.5,"level_index":3,"id":"90326160","name":"班老新寨","lng":98.9396,"lat":23.2812,"type":"PP","type_name":"雨量站","subjection":"临沧分局","address":"临沧市沧源县班老乡班老新寨村","area_id":"530927","basin_name":"怒江","is_over":true,"river_name":"南滚河","water_system":"萨尔温江","lybm":"9","sxbm":"03","adag":"临沧分局            "},{"val":41.5,"level_index":3,"id":"90429010","name":"布都","lng":104.192039,"lat":23.275146,"type":"PP","type_name":"雨量站","subjection":"文山分局","address":"文山州文山市古木镇布都水库","area_id":"532601","basin_name":"红河","is_over":true,"river_name":"白河","water_system":"泸江","lybm":"9","sxbm":"04","adag":"文山分局            "},{"val":41.5,"level_index":3,"id":"90520900","name":"芹菜塘","lng":98.5772,"lat":25.0075,"type":"PP","type_name":"雨量站","subjection":"保山分局","address":"保山市腾冲市腾越镇芹菜塘村","area_id":"530581","basin_name":"伊洛瓦底江","is_over":true,"river_name":"沙河","water_system":"南底河","lybm":"9","sxbm":"05","adag":"保山分局            "},{"val":41.0,"level_index":3,"id":"90245000","name":"石膏箐","lng":101.0533,"lat":22.8256,"type":"PP","type_name":"雨量站","subjection":"普洱分局","address":"普洱市思茅区倚象镇石膏箐村","area_id":"530802","basin_name":"澜沧江","is_over":true,"river_name":"踏青河","water_system":"澜沧江","lybm":"9","sxbm":"02","adag":"普洱分局            "},{"val":41.0,"level_index":3,"id":"90307480","name":"勐啊","lng":99.191803,"lat":22.177601,"type":"ZQ","type_name":"河道水文站","subjection":"普洱分局","address":"普洱市孟连县勐马镇勐啊村","area_id":"530827","basin_name":"怒江","flood_val":502.500,"ensure_val":503.500,"is_over":true,"river_name":"南马河","water_system":"怒江","lybm":"9","sxbm":"03","adag":"普洱分局            "},{"val":41.0,"level_index":3,"id":"90325201","name":"上寨","lng":99.23389,"lat":23.932222,"type":"PP","type_name":"雨量站","subjection":"临沧分局","address":"临沧市永德县德党镇","area_id":"530923","basin_name":"怒江","is_over":true,"river_name":"德党河","water_system":"怒江","lybm":"9","sxbm":"03","adag":"临沧分局            "},{"val":41.0,"level_index":3,"id":"90427680","name":"古林箐","lng":103.96137,"lat":22.810347,"type":"PP","type_name":"雨量站","subjection":"文山分局","address":"文山州马关县古林箐乡政府","area_id":"532625","basin_name":"红河","is_over":true,"river_name":"咪湖河","water_system":"泸江","lybm":"9","sxbm":"04","adag":"文山分局            "},{"val":41.0,"level_index":3,"id":"90520930","name":"永乐","lng":98.5306,"lat":24.9622,"type":"PP","type_name":"雨量站","subjection":"保山分局","address":"保山市腾冲市腾越镇永乐村","area_id":"530581","basin_name":"伊洛瓦底江","is_over":true,"river_name":"白沙河","water_system":"南底河","lybm":"9","sxbm":"05","adag":"保山分局            "},{"val":41.0,"level_index":3,"id":"90523920","name":"勐焕","lng":98.583333,"lat":24.45,"type":"PP","type_name":"雨量站","subjection":"德宏分局","address":"德宏州芒市芒市镇","area_id":"533103","basin_name":"伊洛瓦底江","is_over":true,"river_name":"芒市大河","water_system":"瑞丽江","lybm":"9","sxbm":"05","adag":"德宏分局            "},{"val":40.5,"level_index":3,"id":"90222680","name":"期井","lng":99.298416,"lat":26.382826,"type":"PP","type_name":"雨量站","subjection":"大理分局","address":"怒江州兰坪县拉井镇期井村","area_id":"533325","basin_name":"澜沧江","is_over":true,"river_name":"基督河","water_system":"澜沧江","lybm":"9","sxbm":"02","adag":"大理分局            "},{"val":40.5,"level_index":3,"id":"90223480","name":"木瓜登","lng":99.3104,"lat":26.2308,"type":"PP","type_name":"雨量站","subjection":"大理分局","address":"大理州云龙县检槽乡木瓜登村","area_id":"532929","basin_name":"澜沧江","is_over":true,"river_name":"检槽河","water_system":"澜沧江","lybm":"9","sxbm":"02","adag":"大理分局            "},{"val":40.5,"level_index":3,"id":"90237720","name":"忙糯","lng":100.018944,"lat":23.42475,"type":"PP","type_name":"雨量站","subjection":"临沧分局","address":"临沧市双江县忙糯乡清忙糯村","area_id":"530925","basin_name":"澜沧江","is_over":true,"river_name":"康太河","water_system":"澜沧江","lybm":"9","sxbm":"02","adag":"临沧分局            "},{"val":40.5,"level_index":3,"id":"90243000","name":"安麻山","lng":100.663,"lat":22.1173,"type":"PP","type_name":"雨量站","subjection":"版纳分局","address":"版纳州景洪市嘎洒镇创业大沟管理所","area_id":"532801","basin_name":"澜沧江","is_over":true,"river_name":"曼点河","water_system":"澜沧江","lybm":"9","sxbm":"02","adag":"版纳分局            "},{"val":40.5,"level_index":3,"id":"90246850","name":"勐伴","lng":101.65,"lat":21.7333,"type":"PP","type_name":"雨量站","subjection":"版纳分局","address":"版纳州勐腊县勐伴镇勐伴村委会城子五组","area_id":"532823","basin_name":"澜沧江","is_over":true,"river_name":"南腊河","water_system":"澜沧江","lybm":"9","sxbm":"02","adag":"版纳分局            "},{"val":40.5,"level_index":3,"id":"90248400","name":"拉巴","lng":99.7214,"lat":22.595,"type":"PP","type_name":"雨量站","subjection":"普洱分局","address":"普洱市澜沧县拉巴乡中心小学","area_id":"530828","basin_name":"澜沧江","is_over":true,"river_name":"南垒河","water_system":"南拉河","lybm":"9","sxbm":"02","adag":"普洱分局            "},{"val":40.5,"level_index":3,"id":"90329120","name":"富公","lng":99.119756,"lat":23.315789,"type":"PP","type_name":"雨量站","subjection":"临沧分局","address":"临沧市沧源县班洪乡富公村","area_id":"530927","basin_name":"怒江","is_over":true,"river_name":"富公河","water_system":"南汀河","lybm":"9","sxbm":"03","adag":"临沧分局            "},{"val":40.5,"level_index":3,"id":"90431200","name":"麻栗坡云岭","lng":104.84111,"lat":23.157823,"type":"PP","type_name":"雨量站","subjection":"文山分局","address":"文山州麻栗坡县下金厂乡云岭老房子村","area_id":"532624","basin_name":"红河","is_over":true,"river_name":"八布河","water_system":"泸江","lybm":"9","sxbm":"04","adag":"文山分局            "},{"val":40.5,"level_index":3,"id":"90520100","name":"麻栗坡","lng":97.9,"lat":24.916667,"type":"PP","type_name":"雨量站","subjection":"德宏分局","address":"德宏州盈江县勐弄乡麻栗坡村","area_id":"533123","basin_name":"伊洛瓦底江","is_over":true,"river_name":"勐弄河","water_system":"南太白江","lybm":"9","sxbm":"05","adag":"德宏分局            "},{"val":40.0,"level_index":3,"id":"90525060","name":"瑞丽","lng":97.851944,"lat":24.009166,"type":"PP","type_name":"雨量站","subjection":"德宏分局","address":"德宏州瑞丽市水利局","area_id":"533102","basin_name":"伊洛瓦底江","river_name":"帕色河","water_system":"瑞丽江","lybm":"9","sxbm":"05","adag":"德宏分局            "},{"val":39.5,"level_index":3,"id":"90214900","name":"嘎洒","lng":100.7614,"lat":21.9586,"type":"ZQ","type_name":"河道水文站","subjection":"版纳分局","address":"版纳州景洪市嘎洒镇敬老院内","area_id":"532801","basin_name":"澜沧江","flood_val":553.100,"ensure_val":554.400,"river_name":"南爱河","water_system":"澜沧江","lybm":"9","sxbm":"02","adag":"版纳分局            "},{"val":39.5,"level_index":3,"id":"90246260","name":"曼那伞","lng":101.3478,"lat":21.9386,"type":"PP","type_name":"雨量站","subjection":"版纳分局","address":"版纳州勐腊县勐仑镇那伞村","area_id":"532823","basin_name":"澜沧江","river_name":"补远江","water_system":"澜沧江","lybm":"9","sxbm":"02","adag":"版纳分局            "},{"val":39.5,"level_index":3,"id":"90423010","name":"车垤","lng":101.7614,"lat":23.4022,"type":"PP","type_name":"雨量站","subjection":"玉溪分局","address":"玉溪市元江县因远镇车垤村","area_id":"530428","basin_name":"红河","river_name":"车底河","water_system":"李仙江","lybm":"9","sxbm":"04","adag":"玉溪分局            "},{"val":39.0,"level_index":3,"id":"90226760","name":"密场","lng":99.969605,"lat":25.692705,"type":"PP","type_name":"雨量站","subjection":"大理分局","address":"大理州漾濞县苍山西镇密场村","area_id":"532922","basin_name":"澜沧江","river_name":"雪山河","water_system":"澜沧江","lybm":"9","sxbm":"02","adag":"大理分局            "},{"val":39.0,"level_index":3,"id":"90245150","name":"景哈","lng":100.9167,"lat":21.8333,"type":"PP","type_name":"雨量站","subjection":"版纳分局","address":"版纳州景洪市景哈乡自来水厂","area_id":"532801","basin_name":"澜沧江","river_name":"回得老八河","water_system":"澜沧江","lybm":"9","sxbm":"02","adag":"版纳分局            "},{"val":39.0,"level_index":3,"id":"90246610","name":"曼果","lng":100.3131,"lat":21.7531,"type":"PP","type_name":"雨量站","subjection":"版纳分局","address":"版纳州勐海县布朗山乡曼景村","area_id":"532822","basin_name":"澜沧江","river_name":"南例河","water_system":"澜沧江","lybm":"9","sxbm":"02","adag":"版纳分局            "},{"val":39.0,"level_index":3,"id":"90326200","name":"上罗庆","lng":100.077056,"lat":23.731194,"type":"PP","type_name":"雨量站","subjection":"临沧分局","address":"临沧市临翔区博尚镇湾子村","area_id":"530902","basin_name":"怒江","river_name":"南汀河","water_system":"南汀河","lybm":"9","sxbm":"03","adag":"临沧分局            "},{"val":39.0,"level_index":3,"id":"90422510","name":"墨江双龙","lng":101.6131,"lat":23.4356,"type":"PP","type_name":"雨量站","subjection":"普洱分局","address":"普洱市墨江县联珠镇双龙村","area_id":"530822","basin_name":"红河","river_name":"孟连河","water_system":"李仙江","lybm":"9","sxbm":"04","adag":"普洱分局            "},{"val":39.0,"level_index":3,"id":"90524760","name":"五岔路","lng":98.294722,"lat":24.432777,"type":"PP","type_name":"雨量站","subjection":"德宏分局","address":"德宏州芒市五岔路乡政府办","area_id":"533103","basin_name":"伊洛瓦底江","river_name":"横山河","water_system":"芒市大河","lybm":"9","sxbm":"05","adag":"德宏分局            "},{"val":38.5,"level_index":3,"id":"90328900","name":"勐简","lng":99.3325,"lat":23.719861,"type":"PP","type_name":"雨量站","subjection":"临沧分局","address":"临沧市耿马县勐简乡中心完小","area_id":"530926","basin_name":"怒江","river_name":"南汀河","water_system":"南汀河","lybm":"9","sxbm":"03","adag":"临沧分局            "},{"val":38.5,"level_index":3,"id":"90330600","name":"明朗","lng":99.2085,"lat":23.878111,"type":"PP","type_name":"雨量站","subjection":"临沧分局","address":"临沧市永德县德党镇明朗村","area_id":"530923","basin_name":"怒江","river_name":"南捧河","water_system":"南汀河","lybm":"9","sxbm":"03","adag":"临沧分局            "},{"val":38.5,"level_index":3,"id":"90424520","name":"腊姑","lng":102.3597,"lat":22.882,"type":"PP","type_name":"雨量站","subjection":"红河分局","address":"红河州绿春县三勐乡黄连山水库","area_id":"532531","basin_name":"红河","river_name":"猛曼河","water_system":"李仙江","lybm":"9","sxbm":"04","adag":"红河分局            "},{"val":38.5,"level_index":3,"id":"90430000","name":"豆豉店","lng":104.731507,"lat":23.067873,"type":"PP","type_name":"雨量站","subjection":"文山分局","address":"文山州麻栗坡县麻栗镇豆豉店落水洞村","area_id":"532624","basin_name":"红河","river_name":"盘龙河","water_system":"泸江","lybm":"9","sxbm":"04","adag":"文山分局            "},{"val":38.5,"level_index":3,"id":"90522300","name":"瑞滇","lng":98.46,"lat":25.438333,"type":"PP","type_name":"雨量站","subjection":"保山分局","address":"保山市腾冲市瑞滇镇腊幸街","area_id":"530581","basin_name":"伊洛瓦底江","river_name":"瑞滇河","water_system":"瑞丽江","lybm":"9","sxbm":"05","adag":"保山分局            "},{"val":38.0,"level_index":3,"id":"90245410","name":"大平掌","lng":101.2544,"lat":22.4269,"type":"PP","type_name":"雨量站","subjection":"版纳分局","address":"版纳州景洪市勐旺乡大平掌村","area_id":"532801","basin_name":"澜沧江","river_name":"勐旺河支流","water_system":"澜沧江","lybm":"9","sxbm":"02","adag":"版纳分局            "},{"val":38.0,"level_index":3,"id":"90524750","name":"轩岗","lng":98.439817,"lat":24.447071,"type":"PP","type_name":"雨量站","subjection":"德宏分局","address":"德宏州芒市轩岗乡政府办","area_id":"533103","basin_name":"伊洛瓦底江","river_name":"轩岗河","water_system":"芒市大河","lybm":"9","sxbm":"05","adag":"德宏分局            "},{"val":37.5,"level_index":3,"id":"90226330","name":"弥勒场","lng":99.6437,"lat":26.1218,"type":"PP","type_name":"雨量站","subjection":"大理分局","address":"大理州洱源县乔后镇","area_id":"532930","basin_name":"澜沧江","river_name":"黑惠江","water_system":"澜沧江","lybm":"9","sxbm":"02","adag":"大理分局            "},{"val":37.5,"level_index":3,"id":"90241590","name":"雪林","lng":99.5592,"lat":23.0258,"type":"PP","type_name":"雨量站","subjection":"普洱分局","address":"普洱市澜沧县雪林乡乡政府","area_id":"530828","basin_name":"澜沧江","river_name":"黑河","water_system":"澜沧江","lybm":"9","sxbm":"02","adag":"普洱分局            "},{"val":37.5,"level_index":3,"id":"90246870","name":"瑶区","lng":101.5333,"lat":21.7333,"type":"PP","type_name":"雨量站","subjection":"版纳分局","address":"版纳州勐腊县瑶区乡光明四组","area_id":"532823","basin_name":"澜沧江","river_name":"南瓜河","water_system":"澜沧江","lybm":"9","sxbm":"02","adag":"版纳分局            "},{"val":37.5,"level_index":3,"id":"90248150","name":"曼马","lng":100.0253,"lat":21.9478,"type":"PP","type_name":"雨量站","subjection":"版纳分局","address":"版纳州勐海县西定乡曼马村委会曼马村","area_id":"532822","basin_name":"澜沧江","river_name":"曼马河","water_system":"澜沧江","lybm":"9","sxbm":"02","adag":"版纳分局            "},{"val":37.5,"level_index":3,"id":"90331500","name":"班洪","lng":99.102917,"lat":23.295,"type":"PP","type_name":"雨量站","subjection":"临沧分局","address":"临沧市沧源县班洪乡中学","area_id":"530927","basin_name":"怒江","river_name":"南滚河","water_system":"萨尔温江","lybm":"9","sxbm":"03","adag":"临沧分局            "},{"val":37.5,"level_index":3,"id":"90500800","name":"腾冲","lng":98.4883,"lat":25.0339,"type":"ZQ","type_name":"河道水文站","subjection":"保山分局","address":"保山市腾冲市腾越镇","area_id":"530581","basin_name":"伊洛瓦底江","flood_val":1626.600,"ensure_val":1627.200,"river_name":"叠水河","water_system":"大盈江","lybm":"9","sxbm":"05","station_position":45,"adag":"保山分局            "},{"val":37.0,"level_index":3,"id":"80234800","name":"坝塘","lng":103.5408,"lat":23.5715,"type":"PP","type_name":"雨量站","subjection":"红河分局","address":"红河州开远市羊街乡坝塘村","area_id":"532502","basin_name":"珠江","river_name":"大庄河","water_system":"西江","lybm":"8","sxbm":"02","adag":"红河分局            "},{"val":37.0,"level_index":3,"id":"80239860","name":"舍得","lng":103.865833,"lat":24.238889,"type":"PP","type_name":"雨量站","subjection":"文山分局","address":"文山州丘北县舍得乡舍得村","area_id":"532626","basin_name":"珠江","river_name":"北门河","water_system":"西江","lybm":"8","sxbm":"02","adag":"文山分局            "},{"val":37.0,"level_index":3,"id":"90236900","name":"团结","lng":99.573525,"lat":23.292023,"type":"PP","type_name":"雨量站","subjection":"临沧分局","address":"临沧市沧源县岩帅镇团结片区工委","area_id":"530927","basin_name":"澜沧江","river_name":"贺勐河","water_system":"澜沧江","lybm":"9","sxbm":"02","adag":"临沧分局            "},{"val":37.0,"level_index":3,"id":"90321490","name":"瓦来落","lng":98.856111,"lat":26.0845,"type":"PP","type_name":"雨量站","subjection":"大理分局","address":"怒江州泸水市大兴地乡瓦来落村","area_id":"533301","basin_name":"怒江","river_name":"瓦来坝","water_system":"怒江","lybm":"9","sxbm":"03","adag":"大理分局            "},{"val":37.0,"level_index":3,"id":"90521280","name":"龙营","lng":98.3797,"lat":24.8328,"type":"PP","type_name":"雨量站","subjection":"德宏分局","address":"德宏州梁河县曩宋乡龙营","area_id":"533122","basin_name":"伊洛瓦底江","river_name":"户赛河","water_system":"南底河","lybm":"9","sxbm":"05","adag":"德宏分局            "},{"val":37.0,"level_index":3,"id":"90522130","name":"李家寨","lng":98.6864,"lat":25.6436,"type":"PP","type_name":"雨量站","subjection":"保山分局","address":"保山市腾冲市界头乡大塘小学","area_id":"530581","basin_name":"伊洛瓦底江","river_name":"大塘河","water_system":"伊洛瓦底江","lybm":"9","sxbm":"05","adag":"保山分局            "},{"val":37.0,"level_index":3,"id":"90525880","name":"等扎","lng":97.725277,"lat":24.067777,"type":"PP","type_name":"雨量站","subjection":"德宏分局","address":"德宏州瑞丽市勐秀乡等扎村村委会","area_id":"533102","basin_name":"伊洛瓦底江","river_name":"南宛河","water_system":"瑞丽江","lybm":"9","sxbm":"05","adag":"德宏分局            "},{"val":36.5,"level_index":3,"id":"80723810","name":"马堡","lng":105.059167,"lat":23.846944,"type":"PP","type_name":"雨量站","subjection":"文山分局","address":"文山州广南县董堡乡龙街村","area_id":"532627","basin_name":"珠江","river_name":"南利河","water_system":"西江","lybm":"8","sxbm":"07","adag":"文山分局            "},{"val":36.5,"level_index":3,"id":"90211060","name":"仟信","lng":100.016417,"lat":23.334833,"type":"ZZ","type_name":"河道水位站","subjection":"临沧分局","address":"临沧市双江县大文乡仟信村","area_id":"530925","basin_name":"澜沧江","flood_val":1276.800,"ensure_val":1277.300,"river_name":"骂料河","water_system":"澜沧江","lybm":"9","sxbm":"02","adag":"临沧分局            "},{"val":36.5,"level_index":3,"id":"90223410","name":"白菜园","lng":99.34,"lat":26.174,"type":"PP","type_name":"雨量站","subjection":"大理分局","address":"大理州云龙县检漕乡师井村","area_id":"532929","basin_name":"澜沧江","river_name":"清水河","water_system":"澜沧江","lybm":"9","sxbm":"02","adag":"大理分局            "},{"val":36.5,"level_index":3,"id":"90224000","name":"漕涧","lng":99.1258,"lat":25.6654,"type":"PP","type_name":"雨量站","subjection":"大理分局","address":"大理州云龙县漕涧镇漕涧完小","area_id":"532929","basin_name":"澜沧江","river_name":"漕涧河","water_system":"澜沧江","lybm":"9","sxbm":"02","adag":"大理分局            "},{"val":36.5,"level_index":3,"id":"90246840","name":"曼晏","lng":101.6458,"lat":21.8069,"type":"PP","type_name":"雨量站","subjection":"版纳分局","address":"版纳州勐腊县勐伴镇曼燕(晏)村","area_id":"532823","basin_name":"澜沧江","river_name":"澜沧江","water_system":"澜沧江","lybm":"9","sxbm":"02","adag":"版纳分局            "},{"val":36.5,"level_index":3,"id":"90432900","name":"李梅","lng":105.168358,"lat":23.623307,"type":"PP","type_name":"雨量站","subjection":"文山分局","address":"文山州广南县黑支果乡里麦村","area_id":"532627","basin_name":"红河","river_name":"李梅河","water_system":"泸江","lybm":"9","sxbm":"04","adag":"文山分局            "},{"val":36.5,"level_index":3,"id":"90525120","name":"勐卯水库","lng":97.85,"lat":24.05,"type":"PP","type_name":"雨量站","subjection":"德宏分局","address":"德宏州瑞丽市勐秀乡勐卯水库","area_id":"533102","basin_name":"伊洛瓦底江","river_name":"南毛河","water_system":"瑞丽江","lybm":"9","sxbm":"05","adag":"德宏分局            "},{"val":36.0,"level_index":3,"id":"90237400","name":"新江河","lng":99.97798,"lat":23.65284,"type":"PP","type_name":"雨量站","subjection":"临沧分局","address":"临沧市双江县勐库镇新江河水库","area_id":"530925","basin_name":"澜沧江","river_name":"勐勐河","water_system":"澜沧江","lybm":"9","sxbm":"02","adag":"临沧分局            "},{"val":36.0,"level_index":3,"id":"90244130","name":"长田坝","lng":100.3253,"lat":22.0125,"type":"PP","type_name":"雨量站","subjection":"版纳分局","address":"版纳州勐海县勐海镇曼搞村","area_id":"532822","basin_name":"澜沧江","river_name":"流沙河","water_system":"澜沧江","lybm":"9","sxbm":"02","adag":"版纳分局            "},{"val":36.0,"level_index":3,"id":"90248200","name":"巴达","lng":100.06,"lat":21.8583,"type":"PP","type_name":"雨量站","subjection":"版纳分局","address":"版纳州勐海县西定乡巴达村委会曼马村","area_id":"532822","basin_name":"澜沧江","river_name":"南老河","water_system":"澜沧江","lybm":"9","sxbm":"02","adag":"版纳分局            "},{"val":36.0,"level_index":3,"id":"90332310","name":"公信","lng":99.3181,"lat":22.3081,"type":"PP","type_name":"雨量站","subjection":"普洱分局","address":"普洱市孟连县公信乡计生站","area_id":"530827","basin_name":"怒江","river_name":"南信河","water_system":"南卡江","lybm":"9","sxbm":"03","adag":"普洱分局            "},{"val":36.0,"level_index":3,"id":"90424550","name":"黄莲山","lng":102.2956,"lat":22.8947,"type":"PP","type_name":"雨量站","subjection":"红河分局","address":"红河州绿春县三猛乡黄莲山水库管理处","area_id":"532531","basin_name":"红河","river_name":"猛曼河","water_system":"红河","lybm":"9","sxbm":"04","adag":"红河分局            "},{"val":36.0,"level_index":3,"id":"90521430","name":"大厂","lng":98.375,"lat":24.7565,"type":"PP","type_name":"雨量站","subjection":"德宏分局","address":"德宏州梁河县大厂乡","area_id":"533122","basin_name":"伊洛瓦底江","river_name":"邦幸河","water_system":"南底河","lybm":"9","sxbm":"05","adag":"德宏分局            "},{"val":35.5,"level_index":3,"id":"80723400","name":"者兔","lng":104.783333,"lat":24.143333,"type":"PP","type_name":"雨量站","subjection":"文山分局","address":"文山州广南县者兔乡者兔村","area_id":"532627","basin_name":"珠江","river_name":"西洋江","water_system":"西江","lybm":"8","sxbm":"07","adag":"文山分局            "},{"val":35.5,"level_index":3,"id":"90245420","name":"景洪曼洪","lng":101.3806,"lat":22.4086,"type":"PP","type_name":"雨量站","subjection":"版纳分局","address":"版纳州景洪市勐旺乡曼洪水库","area_id":"532801","basin_name":"澜沧江","river_name":"勐旺河","water_system":"澜沧江","lybm":"9","sxbm":"02","adag":"版纳分局            "},{"val":35.5,"level_index":3,"id":"90246710","name":"勐龙","lng":100.6667,"lat":21.5833,"type":"PP","type_name":"雨量站","subjection":"版纳分局","address":"版纳州景洪市勐龙镇水土保持管理站","area_id":"532801","basin_name":"澜沧江","river_name":"南阿河","water_system":"澜沧江","lybm":"9","sxbm":"02","adag":"版纳分局            "},{"val":35.5,"level_index":3,"id":"90328870","name":"南榨","lng":99.369083,"lat":23.768778,"type":"PP","type_name":"雨量站","subjection":"临沧分局","address":"临沧市镇康县军赛乡岔路村","area_id":"530924","basin_name":"怒江","river_name":"南榨河","water_system":"南汀河","lybm":"9","sxbm":"03","adag":"临沧分局            "},{"val":35.5,"level_index":3,"id":"90404800","name":"董湖","lng":105.209144,"lat":23.509166,"type":"ZQ","type_name":"河道水文站","subjection":"文山分局","address":"文山州麻栗坡县董干镇上董湖村","area_id":"532624","basin_name":"红河","flood_val":705.690,"ensure_val":706.690,"river_name":"南利河","water_system":"泸江","lybm":"9","sxbm":"04","adag":"文山分局            "},{"val":35.5,"level_index":3,"id":"90521260","name":"关璋","lng":98.3996,"lat":24.8898,"type":"PP","type_name":"雨量站","subjection":"德宏分局","address":"德宏州梁河县曩宋乡曩宋村关璋","area_id":"533122","basin_name":"伊洛瓦底江","river_name":"囊宋河","water_system":"南底河","lybm":"9","sxbm":"05","adag":"德宏分局            "},{"val":35.5,"level_index":3,"id":"90523150","name":"黄草坝","lng":98.774167,"lat":24.645556,"type":"PP","type_name":"雨量站","subjection":"保山分局","address":"保山市龙陵县龙新乡黄草坝村","area_id":"530523","basin_name":"伊洛瓦底江","river_name":"香柏河","water_system":"瑞丽江","lybm":"9","sxbm":"05","adag":"保山分局            "},{"val":35.5,"level_index":3,"id":"90524820","name":"三台山","lng":98.35,"lat":24.333333,"type":"PP","type_name":"雨量站","subjection":"德宏分局","address":"德宏州芒市三台山乡派出所","area_id":"533103","basin_name":"伊洛瓦底江","river_name":"瑞丽江","water_system":"芒市大河","lybm":"9","sxbm":"05","adag":"德宏分局            "},{"val":35.0,"level_index":3,"id":"60421620","name":"古柏","lng":102.35502,"lat":25.59988,"type":"PP","type_name":"雨量站","subjection":"楚雄分局","address":"楚雄州武定县狮山镇古柏村委会","area_id":"532329","basin_name":"长江","river_name":"西村河","water_system":"金沙江下段","lybm":"6","sxbm":"04","adag":"楚雄分局            "},{"val":35.0,"level_index":3,"id":"90134600","name":"卡口","lng":103.7426,"lat":23.0258,"type":"PP","type_name":"雨量站","subjection":"红河分局","address":"红河州屏边县滴水乡卡口村","area_id":"532523","basin_name":"红河","river_name":"南溪河","water_system":"元江","lybm":"9","sxbm":"01","adag":"红河分局            "},{"val":35.0,"level_index":3,"id":"90134900","name":"金竹棚","lng":104.045067,"lat":23.19061,"type":"PP","type_name":"雨量站","subjection":"文山分局","address":"文山州文山市新街乡金竹棚村","area_id":"532601","basin_name":"红河","river_name":"那么果河","water_system":"泸江","lybm":"9","sxbm":"01","adag":"文山分局            "},{"val":35.0,"level_index":3,"id":"90222665","name":"啦井","lng":99.272747,"lat":26.49233,"type":"PP","type_name":"雨量站","subjection":"大理分局","address":"怒江州兰坪县拉井镇","area_id":"533325","basin_name":"澜沧江","river_name":"拉井河","water_system":"澜沧江","lybm":"9","sxbm":"02","adag":"大理分局            "},{"val":35.0,"level_index":3,"id":"90236700","name":"岩帅","lng":99.594114,"lat":23.227011,"type":"PP","type_name":"雨量站","subjection":"临沧分局","address":"临沧市沧源县岩帅镇镇政府","area_id":"530927","basin_name":"澜沧江","river_name":"贺勐河","water_system":"澜沧江","lybm":"9","sxbm":"02","adag":"临沧分局            "},{"val":35.0,"level_index":3,"id":"90246880","name":"那着","lng":101.5853,"lat":21.6767,"type":"PP","type_name":"雨量站","subjection":"版纳分局","address":"版纳州勐腊县瑶区乡那着村","area_id":"532823","basin_name":"澜沧江","river_name":"南瓜河","water_system":"澜沧江","lybm":"9","sxbm":"02","adag":"版纳分局            "},{"val":35.0,"level_index":3,"id":"90421115","name":"德安","lng":101.1911,"lat":23.4303,"type":"PP","type_name":"雨量站","subjection":"普洱分局","address":"普洱市宁洱县德安乡政府","area_id":"530821","basin_name":"红河","river_name":"曼别河","water_system":"李仙江","lybm":"9","sxbm":"04","adag":"普洱分局            "},{"val":35.0,"level_index":3,"id":"90421510","name":"大过岭","lng":101.6167,"lat":22.5667,"type":"PP","type_name":"雨量站","subjection":"普洱分局","address":"普洱市江城县整董乡大过岭","area_id":"530826","basin_name":"红河","river_name":"曼连河","water_system":"李仙江","lybm":"9","sxbm":"04","adag":"普洱分局            "},{"val":35.0,"level_index":3,"id":"90431610","name":"八嘎","lng":104.504867,"lat":23.454966,"type":"PP","type_name":"雨量站","subjection":"文山分局","address":"文山州砚山县八嘎乡八嘎村","area_id":"532622","basin_name":"红河","river_name":"董金河","water_system":"泸江","lybm":"9","sxbm":"04","adag":"文山分局            "},{"val":35.0,"level_index":3,"id":"90436250","name":"落水洞","lng":104.516589,"lat":23.229562,"type":"PP","type_name":"雨量站","subjection":"文山分局","address":"文山州西畴县新马街乡落水洞矿泉水厂","area_id":"532623","basin_name":"红河","river_name":"甘塘子河","water_system":"泸江","lybm":"9","sxbm":"04","adag":"文山分局            "},{"val":35.0,"level_index":3,"id":"90502200","name":"戛中","lng":98.1,"lat":24.166667,"type":"ZQ","type_name":"河道水文站","subjection":"德宏分局","address":"德宏州芒市遮放镇拱拉村","area_id":"533103","basin_name":"伊洛瓦底江","flood_val":783.290,"ensure_val":783.690,"river_name":"龙川江","water_system":"瑞丽江","lybm":"9","sxbm":"05","station_position":45,"adag":"德宏分局            "},{"val":35.0,"level_index":3,"id":"90521400","name":"油竹坝","lng":98.416667,"lat":24.766667,"type":"PP","type_name":"雨量站","subjection":"德宏分局","address":"德宏州梁河县小厂乡油竹坝水库","area_id":"533122","basin_name":"伊洛瓦底江","river_name":"邦幸河","water_system":"南底河","lybm":"9","sxbm":"05","adag":"德宏分局            "},{"val":35.0,"level_index":3,"id":"90523970","name":"达弄","lng":98.111666,"lat":24.210277,"type":"PP","type_name":"雨量站","subjection":"德宏分局","address":"德宏州芒市遮放镇达弄村村委会","area_id":"533103","basin_name":"伊洛瓦底江","river_name":"南焕河","water_system":"龙川江","lybm":"9","sxbm":"05","adag":"德宏分局            "},{"val":35.0,"level_index":3,"id":"90524940","name":"芒棒","lng":98.098888,"lat":24.100833,"type":"PP","type_name":"雨量站","subjection":"德宏分局","address":"德宏州瑞丽市畹町经济开发区芒棒村委会","area_id":"533102","basin_name":"伊洛瓦底江","river_name":"南斜勒河","water_system":"畹町河","lybm":"9","sxbm":"05","adag":"德宏分局            "},{"val":35.0,"level_index":3,"id":"90525180","name":"姐相","lng":97.746944,"lat":23.918333,"type":"PP","type_name":"雨量站","subjection":"德宏分局","address":"德宏州瑞丽市姐相乡政府","area_id":"533102","basin_name":"伊洛瓦底江","river_name":"瑞丽江","water_system":"瑞丽江","lybm":"9","sxbm":"05","adag":"德宏分局            "},{"val":34.5,"level_index":3,"id":"90234720","name":"坝胡","lng":100.078167,"lat":23.648528,"type":"PP","type_name":"雨量站","subjection":"临沧分局","address":"临沧市临翔区圈内乡坝胡村","area_id":"530902","basin_name":"澜沧江","river_name":"斗阁河","water_system":"澜沧江","lybm":"9","sxbm":"02","adag":"临沧分局            "},{"val":34.5,"level_index":3,"id":"90430600","name":"马碲寨","lng":104.708056,"lat":23.220833,"type":"PP","type_name":"雨量站","subjection":"文山分局","address":"文山州西畴县柏林乡马碲寨村","area_id":"532623","basin_name":"红河","river_name":"八布河","water_system":"泸江","lybm":"9","sxbm":"04","adag":"文山分局            "},{"val":34.5,"level_index":3,"id":"90430900","name":"董马","lng":104.900599,"lat":23.421653,"type":"PP","type_name":"雨量站","subjection":"文山分局","address":"文山州西畴县董马乡水头村","area_id":"532623","basin_name":"红河","river_name":"董金河","water_system":"泸江","lybm":"9","sxbm":"04","adag":"文山分局            "},{"val":34.5,"level_index":3,"id":"90521970","name":"芒线","lng":97.7527,"lat":24.4967,"type":"PP","type_name":"雨量站","subjection":"德宏分局","address":"德宏州盈江县弄璋镇芒线村","area_id":"533123","basin_name":"伊洛瓦底江","river_name":"大盈江","water_system":"大盈江","lybm":"9","sxbm":"05","adag":"德宏分局            "},{"val":34.0,"level_index":3,"id":"80241420","name":"弥挠","lng":104.34459,"lat":24.26431,"type":"PP","type_name":"雨量站","subjection":"文山分局","address":"文山州丘北县双龙营镇弥挠村","area_id":"532626","basin_name":"珠江","river_name":"凤尾河","water_system":"西江","lybm":"8","sxbm":"02","adag":"文山分局            "},{"val":34.0,"level_index":3,"id":"90244750","name":"曼章水库","lng":100.9278,"lat":21.9006,"type":"PP","type_name":"雨量站","subjection":"版纳分局","address":"版纳州景洪市勐罕镇曼章水库","area_id":"532801","basin_name":"澜沧江","river_name":"南些河","water_system":"澜沧江","lybm":"9","sxbm":"02","adag":"版纳分局            "},{"val":34.0,"level_index":3,"id":"90321785","name":"瓦房街","lng":99.0608,"lat":25.3669,"type":"PP","type_name":"雨量站","subjection":"保山分局","address":"保山市隆阳区瓦房乡瓦房乡政府","area_id":"530502","basin_name":"怒江","river_name":"瓦房河","water_system":"怒江","lybm":"9","sxbm":"03","adag":"保山分局            "},{"val":34.0,"level_index":3,"id":"90323300","name":"大石头练","lng":98.716667,"lat":24.4,"type":"PP","type_name":"雨量站","subjection":"德宏分局","address":"保山市龙陵县象达乡大石头练村","area_id":"530523","basin_name":"怒江","river_name":"苏帕河","water_system":"怒江","lybm":"9","sxbm":"03","adag":"德宏分局            "},{"val":34.0,"level_index":3,"id":"90326800","name":"帮卖","lng":100.010876,"lat":23.917053,"type":"PP","type_name":"雨量站","subjection":"临沧分局","address":"临沧市临翔区章驮乡帮卖村委会","area_id":"530902","basin_name":"怒江","river_name":"西河","water_system":"南汀河","lybm":"9","sxbm":"03","adag":"临沧分局            "},{"val":34.0,"level_index":3,"id":"90429800","name":"新街","lng":104.590121,"lat":23.258102,"type":"PP","type_name":"雨量站","subjection":"文山分局","address":"文山州西畴县兴街镇江秋洞村","area_id":"532623","basin_name":"红河","river_name":"畴阳河","water_system":"泸江","lybm":"9","sxbm":"04","adag":"文山分局            "},{"val":34.0,"level_index":3,"id":"90434600","name":"河口桥头","lng":104.1296,"lat":22.8682,"type":"PP","type_name":"雨量站","subjection":"红河分局","address":"红河州河口县桥头乡水管站","area_id":"532532","basin_name":"红河","river_name":"迷福河","water_system":"李仙江","lybm":"9","sxbm":"04","adag":"红河分局            "},{"val":34.0,"level_index":3,"id":"90520120","name":"昔马","lng":97.7,"lat":24.766667,"type":"PP","type_name":"雨量站","subjection":"德宏分局","address":"德宏州盈江县昔马乡胜利村","area_id":"533123","basin_name":"伊洛瓦底江","river_name":"勐来河","water_system":"穆雷江","lybm":"9","sxbm":"05","adag":"德宏分局            "},{"val":34.0,"level_index":3,"id":"90520180","name":"箐口","lng":98.304167,"lat":25.231667,"type":"PP","type_name":"雨量站","subjection":"保山分局","address":"保山市腾冲市猴桥镇箐口村","area_id":"530581","basin_name":"伊洛瓦底江","river_name":"古永河","water_system":"大盈江","lybm":"9","sxbm":"05","adag":"保山分局            "},{"val":34.0,"level_index":3,"id":"90522010","name":"班瓦","lng":98.3775,"lat":25.5947,"type":"PP","type_name":"雨量站","subjection":"保山分局","address":"保山市腾冲市瑞滇镇班瓦林场望塔","area_id":"530581","basin_name":"伊洛瓦底江","river_name":"老厂河","water_system":"伊洛瓦底江","lybm":"9","sxbm":"05","adag":"保山分局            "},{"val":33.5,"level_index":3,"id":"90120500","name":"小三家","lng":100.300778,"lat":25.406972,"type":"PP","type_name":"雨量站","subjection":"大理分局","address":"大理州巍山县大仓镇小三家村凹家村上社","area_id":"532927","basin_name":"红河","river_name":"西河","water_system":"元江","lybm":"9","sxbm":"01","adag":"大理分局            "},{"val":33.5,"level_index":3,"id":"90222675","name":"弥勒坝","lng":99.271116,"lat":26.418485,"type":"PP","type_name":"雨量站","subjection":"大理分局","address":"怒江州兰坪县拉井镇弥勒坝村","area_id":"533325","basin_name":"澜沧江","river_name":"基督河","water_system":"澜沧江","lybm":"9","sxbm":"02","adag":"大理分局            "},{"val":33.5,"level_index":3,"id":"90223400","name":"长新","lng":99.4386,"lat":26.0758,"type":"PP","type_name":"雨量站","subjection":"大理分局","address":"大理州云龙县长新乡长春坡","area_id":"532929","basin_name":"澜沧江","river_name":"沘江","water_system":"澜沧江","lybm":"9","sxbm":"02","adag":"大理分局            "},{"val":33.5,"level_index":3,"id":"90230300","name":"习谦","lng":99.733889,"lat":24.622694,"type":"PP","type_name":"雨量站","subjection":"临沧分局","address":"临沧市凤庆县勐佑镇习谦村沟边小组","area_id":"530921","basin_name":"澜沧江","river_name":"勐佑河","water_system":"澜沧江","lybm":"9","sxbm":"02","adag":"临沧分局            "},{"val":33.5,"level_index":3,"id":"90244400","name":"勐海勐宋","lng":100.5617,"lat":22.0572,"type":"PP","type_name":"雨量站","subjection":"版纳分局","address":"版纳州勐海县勐宋乡曼迈村委会","area_id":"532822","basin_name":"澜沧江","river_name":"南奔河","water_system":"澜沧江","lybm":"9","sxbm":"02","adag":"版纳分局            "},{"val":33.5,"level_index":3,"id":"90244740","name":"曼达","lng":100.7328,"lat":21.9333,"type":"PP","type_name":"雨量站","subjection":"版纳分局","address":"版纳州景洪市嘎洒镇曼达村","area_id":"532801","basin_name":"澜沧江","river_name":"南凹河","water_system":"澜沧江","lybm":"9","sxbm":"02","adag":"版纳分局            "},{"val":33.5,"level_index":3,"id":"90244770","name":"曼桂","lng":101.0133,"lat":21.9936,"type":"PP","type_name":"雨量站","subjection":"版纳分局","address":"版纳州景洪市勐罕镇曼桂村","area_id":"532801","basin_name":"澜沧江","river_name":"南朵河","water_system":"澜沧江","lybm":"9","sxbm":"02","adag":"版纳分局            "},{"val":33.5,"level_index":3,"id":"90524000","name":"回贤","lng":98.633333,"lat":24.4,"type":"PP","type_name":"雨量站","subjection":"德宏分局","address":"德宏州芒市芒市镇回贤村","area_id":"533103","basin_name":"伊洛瓦底江","river_name":"光沙河","water_system":"芒市大河","lybm":"9","sxbm":"05","adag":"德宏分局            "},{"val":33.5,"level_index":3,"id":"90524960","name":"混板","lng":98.015277,"lat":24.067222,"type":"PP","type_name":"雨量站","subjection":"德宏分局","address":"德宏州瑞丽市畹町经济开发区混板乡医院","area_id":"533102","basin_name":"伊洛瓦底江","river_name":"南道河","water_system":"畹町河","lybm":"9","sxbm":"05","adag":"德宏分局            "},{"val":33.0,"level_index":3,"id":"90214050","name":"纳丙","lng":100.25,"lat":22.283333,"type":"ZQ","type_name":"河道水文站","subjection":"版纳分局","address":"版纳州勐海县勐阿乡纳丙村","area_id":"532822","basin_name":"澜沧江","flood_val":1251.300,"ensure_val":1252.100,"river_name":"南朗河","water_system":"澜沧江","lybm":"9","sxbm":"02","adag":"版纳分局            "},{"val":33.0,"level_index":3,"id":"90327100","name":"马家寨","lng":99.984,"lat":23.853667,"type":"PP","type_name":"雨量站","subjection":"临沧分局","address":"临沧市临翔区博尚镇马家寨","area_id":"530902","basin_name":"怒江","river_name":"勐托河","water_system":"南汀河","lybm":"9","sxbm":"03","adag":"临沧分局            "},{"val":33.0,"level_index":3,"id":"90501000","name":"梁河（二）","lng":98.289452,"lat":24.814965,"type":"ZQ","type_name":"河道水文站","subjection":"德宏分局","address":"德宏州梁河县河西乡红茂村","area_id":"533122","basin_name":"伊洛瓦底江","flood_val":1033.800,"ensure_val":1034.300,"river_name":"南底河","water_system":"大盈江","lybm":"9","sxbm":"05","station_position":45,"adag":"德宏分局            "},{"val":32.5,"level_index":3,"id":"90240600","name":"东洱河","lng":101.0578,"lat":23.0744,"type":"PP","type_name":"雨量站","subjection":"普洱分局","address":"普洱市宁洱县宁洱镇东洱河水库","area_id":"530821","basin_name":"澜沧江","river_name":"东洱河","water_system":"澜沧江","lybm":"9","sxbm":"02","adag":"普洱分局            "},{"val":32.5,"level_index":3,"id":"90241930","name":"弯角山","lng":100.6833,"lat":22.4333,"type":"PP","type_name":"雨量站","subjection":"版纳分局","address":"版纳州景洪市景讷乡弯角山村","area_id":"532801","basin_name":"澜沧江","river_name":"黄草岭河","water_system":"澜沧江","lybm":"9","sxbm":"02","adag":"版纳分局            "},{"val":32.5,"level_index":3,"id":"90243800","name":"曼洪","lng":100.3236,"lat":22.0507,"type":"PP","type_name":"雨量站","subjection":"版纳分局","address":"版纳州勐海县勐遮镇曼洪村委会曼洪村","area_id":"532822","basin_name":"澜沧江","river_name":"南哈河","water_system":"澜沧江","lybm":"9","sxbm":"02","adag":"版纳分局            "},{"val":32.5,"level_index":3,"id":"90325800","name":"岔河水库","lng":98.8417,"lat":24.2719,"type":"PP","type_name":"雨量站","subjection":"龙陵县水务局","address":"保山市龙陵县","area_id":"530523","basin_name":"怒江","river_name":"绿根河","water_system":"怒江","lybm":"9","sxbm":"03","adag":"保山分局            "},{"val":32.5,"level_index":3,"id":"90327870","name":"曼卡坝","lng":98.911763,"lat":23.492381,"type":"PP","type_name":"雨量站","subjection":"临沧分局","address":"临沧市沧源县南腊乡曼卡坝","area_id":"530927","basin_name":"怒江","river_name":"云兴河","water_system":"南汀河","lybm":"9","sxbm":"03","adag":"临沧分局            "},{"val":32.5,"level_index":3,"id":"90424460","name":"大沙坝","lng":102.3892,"lat":22.6377,"type":"PP","type_name":"雨量站","subjection":"红河分局","address":"红河州绿春县大黑山乡大沙坝","area_id":"532531","basin_name":"红河","river_name":"小黑江","water_system":"李仙江","lybm":"9","sxbm":"04","adag":"红河分局            "},{"val":32.5,"level_index":3,"id":"90433600","name":"大栗树","lng":104.19076,"lat":23.075304,"type":"PP","type_name":"雨量站","subjection":"文山分局","address":"文山州马关县大栗树乡麻栗寨","area_id":"532625","basin_name":"红河","river_name":"落却河","water_system":"泸江","lybm":"9","sxbm":"04","adag":"文山分局            "},{"val":32.5,"level_index":3,"id":"90521720","name":"陇中","lng":97.9434,"lat":24.7954,"type":"PP","type_name":"雨量站","subjection":"德宏分局","address":"德宏州盈江县平原镇陇中村","area_id":"533123","basin_name":"伊洛瓦底江","river_name":"南朗河","water_system":"大盈江","lybm":"9","sxbm":"05","adag":"德宏分局            "},{"val":32.5,"level_index":3,"id":"90523935","name":"一碗水","lng":98.667222,"lat":24.447222,"type":"PP","type_name":"雨量站","subjection":"德宏分局","address":"德宏州芒市芒市镇中东一碗水","area_id":"533103","basin_name":"伊洛瓦底江","river_name":"邵地河","water_system":"芒市大河","lybm":"9","sxbm":"05","adag":"德宏分局            "},{"val":32.0,"level_index":3,"id":"80724800","name":"里安","lng":105.422305,"lat":23.750026,"type":"PP","type_name":"雨量站","subjection":"文山分局","address":"文山州广南县八宝镇里安村","area_id":"532627","basin_name":"珠江","river_name":"八宝河","water_system":"西江","lybm":"8","sxbm":"07","adag":"文山分局            "},{"val":32.0,"level_index":3,"id":"90238290","name":"多依林","lng":99.9108,"lat":22.9033,"type":"PP","type_name":"雨量站","subjection":"普洱分局","address":"普洱市澜沧县富邦乡多依林水库","area_id":"530828","basin_name":"澜沧江","river_name":"多依林河","water_system":"澜沧江","lybm":"9","sxbm":"02","adag":"普洱分局            "},{"val":32.0,"level_index":3,"id":"90241780","name":"思茅港","lng":100.5856,"lat":22.5008,"type":"PP","type_name":"雨量站","subjection":"普洱分局","address":"普洱市思茅区思茅港镇四队","area_id":"530802","basin_name":"澜沧江","river_name":"澜沧江","water_system":"澜沧江","lybm":"9","sxbm":"02","adag":"普洱分局            "},{"val":32.0,"level_index":3,"id":"90243310","name":"丫口老寨","lng":100.5253,"lat":21.8983,"type":"PP","type_name":"雨量站","subjection":"版纳分局","address":"版纳州勐海县格朗和乡苏湖村","area_id":"532822","basin_name":"澜沧江","river_name":"南温河","water_system":"澜沧江","lybm":"9","sxbm":"02","adag":"版纳分局            "},{"val":32.0,"level_index":3,"id":"90244110","name":"勐海水利局","lng":100.4494,"lat":21.9614,"type":"PP","type_name":"雨量站","subjection":"版纳分局","address":"版纳州勐海县勐海镇景广路县法院","area_id":"532822","basin_name":"澜沧江","river_name":"流沙河","water_system":"澜沧江","lybm":"9","sxbm":"02","adag":"版纳分局            "},{"val":32.0,"level_index":3,"id":"90325400","name":"永德新寨","lng":99.383333,"lat":24.066667,"type":"PP","type_name":"雨量站","subjection":"临沧分局","address":"临沧市永德县永康镇永德新寨","area_id":"530923","basin_name":"怒江","river_name":"大地河","water_system":"怒江","lybm":"9","sxbm":"03","adag":"临沧分局            "},{"val":32.0,"level_index":3,"id":"90421310","name":"小菜园","lng":101.65,"lat":23.4167,"type":"PP","type_name":"雨量站","subjection":"普洱分局","address":"普洱市墨江县联珠镇小菜园","area_id":"530822","basin_name":"红河","river_name":"他郎河","water_system":"李仙江","lybm":"9","sxbm":"04","adag":"普洱分局            "},{"val":32.0,"level_index":3,"id":"90429500","name":"南温河","lng":104.673822,"lat":22.994548,"type":"PP","type_name":"雨量站","subjection":"文山分局","address":"文山州麻栗坡县天保镇城子上村","area_id":"532624","basin_name":"红河","river_name":"盘龙河","water_system":"泸江","lybm":"9","sxbm":"04","adag":"文山分局            "},{"val":32.0,"level_index":3,"id":"90433500","name":"田篷","lng":105.449167,"lat":23.304444,"type":"PP","type_name":"雨量站","subjection":"文山分局","address":"文山州富宁县田蓬镇田蓬街","area_id":"532628","basin_name":"红河","river_name":"南利河","water_system":"泸江","lybm":"9","sxbm":"04","adag":"文山分局            "},{"val":32.0,"level_index":3,"id":"90525910","name":"户弄","lng":97.825,"lat":24.206111,"type":"PP","type_name":"雨量站","subjection":"德宏分局","address":"德宏州陇川县章凤镇户弄村村委会","area_id":"533124","basin_name":"伊洛瓦底江","river_name":"南伞河","water_system":"南宛河","lybm":"9","sxbm":"05","adag":"德宏分局            "},{"val":31.5,"level_index":3,"id":"90233980","name":"邦公","lng":100.2,"lat":23.716667,"type":"PP","type_name":"雨量站","subjection":"临沧分局","address":"临沧市临翔区博尚镇邦公村","area_id":"530902","basin_name":"澜沧江","river_name":"坝蜜河","water_system":"澜沧江","adag":"临沧分局            "},{"val":31.5,"level_index":3,"id":"90326000","name":"永泉","lng":100.043333,"lat":23.687306,"type":"PP","type_name":"雨量站","subjection":"临沧分局","address":"临沧市临翔区博尚镇永泉村","area_id":"530902","basin_name":"怒江","river_name":"南汀河","water_system":"南汀河","lybm":"9","sxbm":"03","adag":"临沧分局            "},{"val":31.5,"level_index":3,"id":"90421530","name":"瑶家山","lng":101.6453,"lat":22.5108,"type":"PP","type_name":"雨量站","subjection":"普洱分局","address":"普洱市江城县整董乡瑶家山","area_id":"530826","basin_name":"红河","river_name":"曼连河","water_system":"李仙江","lybm":"9","sxbm":"04","adag":"普洱分局            "},{"val":31.5,"level_index":3,"id":"90525000","name":"姐勒水库","lng":97.893055,"lat":24.040277,"type":"PP","type_name":"雨量站","subjection":"德宏分局","address":"德宏州瑞丽市姐勒乡姐勒水库","area_id":"533102","basin_name":"伊洛瓦底江","river_name":"南卡河","water_system":"瑞丽江","lybm":"9","sxbm":"05","adag":"德宏分局            "},{"val":31.0,"level_index":3,"id":"80243340","name":"富源老厂","lng":104.5225,"lat":25.2281,"type":"PP","type_name":"雨量站","subjection":"曲靖分局","address":"曲靖市富源县老厂乡","area_id":"530325","basin_name":"珠江","river_name":"黄泥河","water_system":"南盘江","lybm":"8","sxbm":"02","adag":"曲靖分局            "},{"val":31.0,"level_index":3,"id":"80321800","name":"榕峰顶","lng":104.09,"lat":26.12,"type":"PP","type_name":"雨量站","subjection":"曲靖分局","address":"曲靖市宣威市双龙办事处微波站","area_id":"530381","basin_name":"珠江","river_name":"盘龙河","water_system":"西江","lybm":"8","sxbm":"03","adag":"曲靖分局            "},{"val":31.0,"level_index":3,"id":"90215600","name":"曼安","lng":101.2672,"lat":21.9142,"type":"ZQ","type_name":"河道水文站","subjection":"版纳分局","address":"版纳州勐腊县勐仑镇曼安村对岸","area_id":"532823","basin_name":"澜沧江","flood_val":539.800,"ensure_val":540.900,"river_name":"补远江","water_system":"澜沧江","lybm":"9","sxbm":"02","adag":"版纳分局            "},{"val":31.0,"level_index":3,"id":"90241100","name":"骂木","lng":100.7797,"lat":22.8442,"type":"PP","type_name":"雨量站","subjection":"普洱分局","address":"普洱市思茅区震东乡骂木村","area_id":"530802","basin_name":"澜沧江","river_name":"骂木河","water_system":"澜沧江","lybm":"9","sxbm":"02","adag":"普洱分局            "},{"val":31.0,"level_index":3,"id":"90305100","name":"河底岗","lng":99.555901,"lat":23.8752,"type":"ZQ","type_name":"河道水文站","subjection":"临沧分局","address":"临沧市永德县崇岗乡忙蚌村大桥墩","area_id":"530923","basin_name":"怒江","flood_val":617.900,"ensure_val":618.400,"river_name":"南汀河","water_system":"南汀河","adag":"临沧分局            "},{"val":31.0,"level_index":3,"id":"90321690","name":"大炼地","lng":98.863611,"lat":25.749528,"type":"PP","type_name":"雨量站","subjection":"大理分局","address":"怒江州泸水市上江乡大炼地","area_id":"533301","basin_name":"怒江","river_name":"蛮蚌河","water_system":"怒江","lybm":"9","sxbm":"03","adag":"大理分局            "},{"val":31.0,"level_index":3,"id":"90322900","name":"八零八","lng":98.875833,"lat":24.684722,"type":"PP","type_name":"雨量站","subjection":"保山分局","address":"保山市龙陵县镇安镇八零八水库","area_id":"530523","basin_name":"怒江","river_name":"镇安河","water_system":"怒江","lybm":"9","sxbm":"03","adag":"保山分局            "},{"val":31.0,"level_index":3,"id":"90322920","name":"镇安","lng":98.807348,"lat":24.699465,"type":"PP","type_name":"雨量站","subjection":"保山分局","address":"保山市龙陵县镇安镇三岔河水库","area_id":"530523","basin_name":"怒江","river_name":"勐梅河","water_system":"怒江","lybm":"9","sxbm":"03","adag":"保山分局            "},{"val":31.0,"level_index":3,"id":"90328980","name":"新华","lng":99.483306,"lat":23.7,"type":"PP","type_name":"雨量站","subjection":"临沧分局","address":"临沧市耿马县勐简乡新华村","area_id":"530926","basin_name":"怒江","river_name":"铁厂河","water_system":"南汀河","lybm":"9","sxbm":"03","adag":"临沧分局            "},{"val":31.0,"level_index":3,"id":"90426050","name":"雷达","lng":103.2383,"lat":22.8653,"type":"PP","type_name":"雨量站","subjection":"红河分局","address":"红河州金平县阿得博分水岭雷达站","area_id":"532530","basin_name":"红河","river_name":"哈尼田河","water_system":"李仙江","lybm":"9","sxbm":"04","adag":"红河分局            "},{"val":31.0,"level_index":3,"id":"90525150","name":"弄贤","lng":97.781944,"lat":23.965555,"type":"PP","type_name":"雨量站","subjection":"德宏分局","address":"德宏州瑞丽市户育乡弄贤村村委会","area_id":"533102","basin_name":"伊洛瓦底江","river_name":"广蚌河","water_system":"瑞丽江","lybm":"9","sxbm":"05","adag":"德宏分局            "},{"val":31.0,"level_index":3,"id":"90525700","name":"城子","lng":97.963055,"lat":24.361388,"type":"PP","type_name":"雨量站","subjection":"德宏分局","address":"德宏州陇川县城子镇政府","area_id":"533124","basin_name":"伊洛瓦底江","river_name":"南撒河","water_system":"南宛河","lybm":"9","sxbm":"05","adag":"德宏分局            "},{"val":30.5,"level_index":3,"id":"60224920","name":"昔腊坪","lng":100.9837,"lat":26.7565,"type":"PP","type_name":"雨量站","subjection":"丽江分局","address":"丽江市宁蒗县永宁坪乡昔腊坪村委会","area_id":"530724","basin_name":"长江","river_name":"马过河","water_system":"金沙江","lybm":"6","sxbm":"02","adag":"丽江分局            "},{"val":30.5,"level_index":3,"id":"80231600","name":"邑北孔","lng":102.6117,"lat":23.7394,"type":"PP","type_name":"雨量站","subjection":"红河分局","address":"红河州石屏县坝心乡邑北孔村","area_id":"532525","basin_name":"珠江","river_name":"泸江","water_system":"西江","lybm":"8","sxbm":"02","adag":"红河分局            "},{"val":30.5,"level_index":3,"id":"80239920","name":"白马","lng":104.109444,"lat":24.239167,"type":"PP","type_name":"雨量站","subjection":"文山分局","address":"文山州丘北县双龙营镇白马村","area_id":"532626","basin_name":"珠江","river_name":"补挡河","water_system":"西江","lybm":"8","sxbm":"02","adag":"文山分局            "},{"val":30.5,"level_index":3,"id":"90127260","name":"新化","lng":101.8606,"lat":24.1161,"type":"PP","type_name":"雨量站","subjection":"玉溪分局","address":"玉溪市新平县新化乡水保站","area_id":"530427","basin_name":"红河","river_name":"衣施河","water_system":"红河","lybm":"9","sxbm":"01","adag":"玉溪分局            "},{"val":30.5,"level_index":3,"id":"90201800","name":"关累","lng":101.13387,"lat":21.676948,"type":"ZZ","type_name":"河道水位站","subjection":"版纳分局","address":"版纳州勐腊县关累镇关累港","area_id":"532823","basin_name":"澜沧江","flood_val":506.000,"ensure_val":507.570,"river_name":"澜沧江","water_system":"澜沧江","lybm":"9","sxbm":"02","adag":"版纳分局            "},{"val":30.5,"level_index":3,"id":"90243930","name":"曼恩","lng":100.36,"lat":21.9453,"type":"PP","type_name":"雨量站","subjection":"版纳分局","address":"版纳州勐海县勐遮镇曼恩小学","area_id":"532822","basin_name":"澜沧江","river_name":"流沙河","water_system":"澜沧江","lybm":"9","sxbm":"02","adag":"版纳分局            "},{"val":30.5,"level_index":3,"id":"90248700","name":"南雅","lng":99.5425,"lat":22.3864,"type":"PP","type_name":"雨量站","subjection":"普洱分局","address":"普洱市孟连县景信乡南雅村","area_id":"530827","basin_name":"澜沧江","river_name":"南雅河","water_system":"南拉河","lybm":"9","sxbm":"02","adag":"普洱分局            "},{"val":30.5,"level_index":3,"id":"90328970","name":"中厂","lng":99.253917,"lat":23.756639,"type":"PP","type_name":"雨量站","subjection":"临沧分局","address":"临沧市镇康县军赛乡中厂村","area_id":"530924","basin_name":"怒江","river_name":"硝塘河","water_system":"南汀河","lybm":"9","sxbm":"03","adag":"临沧分局            "},{"val":30.5,"level_index":3,"id":"90331210","name":"乌木兰","lng":99.139389,"lat":23.840583,"type":"PP","type_name":"雨量站","subjection":"临沧分局","address":"临沧市镇康县木厂乡乌木兰村","area_id":"530924","basin_name":"怒江","river_name":"打龙河","water_system":"南汀河","lybm":"9","sxbm":"03","adag":"临沧分局            "},{"val":30.5,"level_index":3,"id":"90430020","name":"南油","lng":104.730757,"lat":23.165974,"type":"PP","type_name":"雨量站","subjection":"文山分局","address":"文山州麻栗坡县麻栗镇南油村委会","area_id":"532624","basin_name":"红河","river_name":"畴阳河","water_system":"泸江","lybm":"9","sxbm":"04","adag":"文山分局            "},{"val":30.5,"level_index":3,"id":"90435150","name":"南松","lng":104.565482,"lat":22.859841,"type":"PP","type_name":"雨量站","subjection":"文山分局","address":"文山州马关县都龙镇南松村","area_id":"532625","basin_name":"红河","river_name":"南北河","water_system":"泸江","lybm":"9","sxbm":"04","adag":"文山分局            "},{"val":30.0,"level_index":3,"id":"80724200","name":"马街","lng":105.198333,"lat":23.761111,"type":"PP","type_name":"雨量站","subjection":"文山分局","address":"文山州广南县马街乡马街村","area_id":"532627","basin_name":"珠江","river_name":"西洋江","water_system":"西江","lybm":"8","sxbm":"07","adag":"文山分局            "},{"val":30.0,"level_index":3,"id":"90204120","name":"漕涧","lng":99.114347,"lat":25.651008,"type":"ZZ","type_name":"河道水位站","subjection":"大理分局","address":"大理州云龙县漕涧镇仁德村委会上中噶村","area_id":"532929","basin_name":"澜沧江","flood_val":1945.800,"ensure_val":1946.100,"river_name":"漕涧河","water_system":"澜沧江","lybm":"9","sxbm":"02","adag":"大理分局            "},{"val":30.0,"level_index":3,"id":"90209400","name":"斗阁","lng":100.10575,"lat":23.611444,"type":"ZZ","type_name":"河道水位站","subjection":"临沧分局","address":"临沧市临翔区圈内乡斗阁村","area_id":"530902","basin_name":"澜沧江","flood_val":1667.600,"ensure_val":1668.200,"river_name":"斗阁河","water_system":"澜沧江","lybm":"9","sxbm":"02","adag":"临沧分局            "},{"val":30.0,"level_index":3,"id":"90216700","name":"打洛","lng":100.052673,"lat":21.698356,"type":"ZZ","type_name":"河道水位站","subjection":"版纳分局","address":"版纳州勐海县打洛镇卫生院旁","area_id":"532822","basin_name":"澜沧江","flood_val":630.000,"ensure_val":631.500,"river_name":"南览河","water_system":"澜沧江","lybm":"9","sxbm":"02","adag":"版纳分局            "},{"val":30.0,"level_index":3,"id":"90233750","name":"糯洒","lng":100.349816,"lat":24.161514,"type":"PP","type_name":"雨量站","subjection":"临沧分局","address":"临沧市云县涌宝镇糯洒村","area_id":"530922","basin_name":"澜沧江","river_name":"拿鱼河","water_system":"澜沧江","lybm":"9","sxbm":"02","adag":"临沧分局            "},{"val":30.0,"level_index":3,"id":"90239450","name":"田坝","lng":100.9708,"lat":23.6997,"type":"PP","type_name":"雨量站","subjection":"普洱分局","address":"普洱市镇沅县田坝乡田坝村","area_id":"530825","basin_name":"澜沧江","river_name":"芒拍河","water_system":"澜沧江","lybm":"9","sxbm":"02","adag":"普洱分局            "},{"val":30.0,"level_index":3,"id":"90243420","name":"曼各","lng":100.3781,"lat":21.8128,"type":"PP","type_name":"雨量站","subjection":"版纳分局","address":"版纳州勐海县勐混镇曼各村","area_id":"532822","basin_name":"澜沧江","river_name":"南木歪","water_system":"澜沧江","lybm":"9","sxbm":"02","adag":"版纳分局            "},{"val":30.0,"level_index":3,"id":"90245130","name":"菠萝","lng":101.2958,"lat":22.6117,"type":"PP","type_name":"雨量站","subjection":"普洱分局","address":"普洱市思茅区倚象镇菠萝村","area_id":"530802","basin_name":"澜沧江","river_name":"踏青河","water_system":"澜沧江","lybm":"9","sxbm":"02","adag":"普洱分局            "},{"val":30.0,"level_index":3,"id":"90247160","name":"班倒小寨","lng":100.1444,"lat":22.1553,"type":"PP","type_name":"雨量站","subjection":"版纳分局","address":"版纳州勐海县勐满镇班倒村","area_id":"532822","basin_name":"澜沧江","river_name":"打马河","water_system":"澜沧江","lybm":"9","sxbm":"02","adag":"版纳分局            "},{"val":30.0,"level_index":3,"id":"90248310","name":"板纳","lng":100.1281,"lat":21.8,"type":"PP","type_name":"雨量站","subjection":"版纳分局","address":"版纳州勐海县打洛镇曼空村","area_id":"532822","basin_name":"澜沧江","river_name":"南撇河","water_system":"湄公河","lybm":"9","sxbm":"02","adag":"版纳分局            "},{"val":30.0,"level_index":3,"id":"90329510","name":"蔡何村","lng":99.074278,"lat":23.885889,"type":"PP","type_name":"雨量站","subjection":"临沧分局","address":"临沧市镇康县忙丙乡蔡何村完小","area_id":"530924","basin_name":"怒江","river_name":"芦子园小河","water_system":"南汀河","lybm":"9","sxbm":"03","adag":"临沧分局            "},{"val":30.0,"level_index":3,"id":"90521050","name":"大村","lng":98.3631,"lat":25.1078,"type":"PP","type_name":"雨量站","subjection":"保山分局","address":"保山市腾冲市中和乡高田村高田小学","area_id":"530581","basin_name":"伊洛瓦底江","river_name":"勐蚌河","water_system":"伊洛瓦底江","lybm":"9","sxbm":"05","adag":"保山分局            "},{"val":30.0,"level_index":3,"id":"90521130","name":"荷花","lng":98.4,"lat":24.9667,"type":"PP","type_name":"雨量站","subjection":"保山分局","address":"保山市腾冲市荷花乡肖庄村","area_id":"530581","basin_name":"伊洛瓦底江","river_name":"叠水河","water_system":"大盈江","lybm":"9","sxbm":"05","adag":"保山分局            "},{"val":30.0,"level_index":3,"id":"90522070","name":"铜壁关","lng":97.65,"lat":24.6,"type":"PP","type_name":"雨量站","subjection":"德宏分局","address":"德宏州盈江县铜壁关乡","area_id":"533123","basin_name":"伊洛瓦底江","river_name":"户宋河","water_system":"大盈江","lybm":"9","sxbm":"05","adag":"德宏分局            "},{"val":29.5,"level_index":3,"id":"60220840","name":"巴拉","lng":99.444507,"lat":28.304438,"type":"PP","type_name":"雨量站","subjection":"大理分局","address":"迪庆州香格里拉市尼西乡巴拉村","area_id":"533401","basin_name":"长江","river_name":"岗曲河","water_system":"金沙江上段","lybm":"6","sxbm":"02","adag":"大理分局            "},{"val":29.5,"level_index":3,"id":"80241960","name":"阿鲁","lng":104.2601,"lat":25.0114,"type":"PP","type_name":"雨量站","subjection":"曲靖分局","address":"曲靖市罗平县阿鲁乡阿鲁村委会","area_id":"530324","basin_name":"珠江","river_name":"牛街小河","water_system":"南盘江","lybm":"8","sxbm":"02","adag":"曲靖分局            "},{"val":29.5,"level_index":3,"id":"90134100","name":"老寨","lng":103.7912,"lat":23.3953,"type":"PP","type_name":"雨量站","subjection":"红河分局","address":"红河州蒙自县老寨乡小学校","area_id":"532503","basin_name":"红河","river_name":"叉冲河","water_system":"元江","lybm":"9","sxbm":"01","adag":"红河分局            "},{"val":29.5,"level_index":3,"id":"90214400","name":"勐海","lng":100.4258,"lat":21.9514,"type":"ZQ","type_name":"河道水文站","subjection":"版纳分局","address":"版纳州勐海县勐海镇佛双路106号","area_id":"532822","basin_name":"澜沧江","flood_val":1170.500,"ensure_val":1171.080,"river_name":"流沙河","water_system":"澜沧江","lybm":"9","sxbm":"02","adag":"版纳分局            "},{"val":29.5,"level_index":3,"id":"90239000","name":"四五","lng":100.48,"lat":23.0661,"type":"PP","type_name":"雨量站","subjection":"普洱分局","address":"普洱市景谷县碧安乡云中村四五水库","area_id":"530824","basin_name":"澜沧江","river_name":"芒旺河","water_system":"澜沧江","lybm":"9","sxbm":"02","adag":"普洱分局            "},{"val":29.5,"level_index":3,"id":"90240800","name":"同心","lng":101.0564,"lat":22.9622,"type":"PP","type_name":"雨量站","subjection":"普洱分局","address":"普洱市宁洱县同心乡同心村","area_id":"530821","basin_name":"澜沧江","river_name":"追栗河","water_system":"澜沧江","lybm":"9","sxbm":"02","adag":"普洱分局            "},{"val":29.5,"level_index":3,"id":"90241900","name":"勐往","lng":100.47,"lat":22.3875,"type":"PP","type_name":"雨量站","subjection":"版纳分局","address":"版纳州勐海县勐往乡水土保持站","area_id":"532822","basin_name":"澜沧江","river_name":"南朗河","water_system":"澜沧江","lybm":"9","sxbm":"02","adag":"版纳分局            "},{"val":29.5,"level_index":3,"id":"90241910","name":"曼东寨","lng":100.4917,"lat":22.3256,"type":"PP","type_name":"雨量站","subjection":"版纳分局","address":"版纳州勐海县勐往乡曼东寨村","area_id":"532822","basin_name":"澜沧江","river_name":"曼东河支流","water_system":"澜沧江","lybm":"9","sxbm":"02","adag":"版纳分局            "},{"val":29.5,"level_index":3,"id":"90244000","name":"勐邦","lng":100.2842,"lat":21.9181,"type":"PP","type_name":"雨量站","subjection":"版纳分局","address":"版纳州勐海县勐遮镇勐邦水库","area_id":"532822","basin_name":"澜沧江","river_name":"南木岭河","water_system":"澜沧江","lybm":"9","sxbm":"02","adag":"版纳分局            "},{"val":29.5,"level_index":3,"id":"90247660","name":"芒东","lng":99.89,"lat":22.5072,"type":"PP","type_name":"雨量站","subjection":"普洱分局","address":"普洱市澜沧县勐朗镇芒东村","area_id":"530828","basin_name":"澜沧江","river_name":"南朗河","water_system":"澜沧江","lybm":"9","sxbm":"02","adag":"普洱分局            "},